{
  "Hotspots" : [
    {
      "id": "L6314417",
      "country": "ZA",
      "countryCode": "ZA-NC",
      "latitude": -28.4711057,
      "longitude": 17.2169495,
      "location": "/Ai-/Ais-Richtersveld NP (South Africa)",
      "date": "2017-10-24 00:00",
      "count": 40
    },
    {
      "id": "L21491994",
      "country": "ZA",
      "countryCode": "ZA-GT",
      "latitude": -26.0085957,
      "longitude": 28.1264055,
      "location": "24 solutions",
      "date": "2010-12-11 00:00",
      "count": 3
    },
    {
      "id": "L25522843",
      "country": "ZA",
      "countryCode": "ZA-GT",
      "latitude": -25.9737221,
      "longitude": 27.8354643,
      "location": "26 Degrees South--Cradle Moon Conservancy",
      "date": "2023-11-04 15:58",
      "count": 120
    },
    {
      "id": "L17151139",
      "country": "ZA",
      "countryCode": "ZA-EC",
      "latitude": -32.9062431,
      "longitude": 27.8688305,
      "location": "3 Silos MTB and Hiking Trails",
      "date": "2023-02-04 05:30",
      "count": 108
    },
    {
      "id": "L10318378",
      "country": "ZA",
      "countryCode": "ZA-FS",
      "latitude": -28.489279,
      "longitude": 27.06084,
      "location": "ADI Wildlife Sanctuary",
      "date": "2023-07-14 10:24",
      "count": 58
    },
    {
      "id": "L4010998",
      "country": "ZA",
      "countryCode": "ZA-NC",
      "latitude": -29.9380522,
      "longitude": 18.4071314,
      "location": "Aardvark Kloof",
      "date": "2016-09-07 11:00",
      "count": 44
    },
    {
      "id": "L2519831",
      "country": "ZA",
      "countryCode": "ZA-GT",
      "latitude": -26.3097273,
      "longitude": 27.3487473,
      "location": "Abe Bailey Nature Reserve",
      "date": "2023-08-26 13:30",
      "count": 204
    },
    {
      "id": "L1283761",
      "country": "ZA",
      "countryCode": "ZA-LP",
      "latitude": -24.4582639,
      "longitude": 30.6111744,
      "location": "Abel Erasmus Pass/Strijdom Tunnel (Taita Falcon)",
      "date": "2023-11-04 10:36",
      "count": 203
    },
    {
      "id": "L16607692",
      "country": "ZA",
      "countryCode": "ZA-EC",
      "latitude": -33.4909271,
      "longitude": 25.7690709,
      "location": "Addo Ele. NP--Main Game Viewing Area (whole area btw. N2 & R342)",
      "date": "2023-11-04 16:02",
      "count": 220
    },
    {
      "id": "L3316670",
      "country": "ZA",
      "countryCode": "ZA-EC",
      "latitude": -33.4438604,
      "longitude": 25.7460013,
      "location": "Addo Ele. NP--Main Rest Camp (Restcamp only)",
      "date": "2023-11-05 08:40",
      "count": 270
    },
    {
      "id": "L16417463",
      "country": "ZA",
      "countryCode": "ZA-EC",
      "latitude": -33.6001129,
      "longitude": 25.8297751,
      "location": "Addo Ele. NP--Ngulube Loop (between 31 & 38)",
      "date": "2023-06-28 08:33",
      "count": 42
    },
    {
      "id": "L971974",
      "country": "ZA",
      "countryCode": "ZA-EC",
      "latitude": -33.3213463,
      "longitude": 25.6221775,
      "location": "Addo Elephant NP",
      "date": "2023-05-09 08:25",
      "count": 300
    },
    {
      "id": "L7720211",
      "country": "ZA",
      "countryCode": "ZA-EC",
      "latitude": -33.6178357,
      "longitude": 25.7970142,
      "location": "Addo Elephant NP--Colchester Section (North)",
      "date": "2023-10-16 08:08",
      "count": 67
    },
    {
      "id": "L12787256",
      "country": "ZA",
      "countryCode": "ZA-EC",
      "latitude": -33.4401746,
      "longitude": 25.7824005,
      "location": "Addo Elephant NP--Domkrag Dam Lookout",
      "date": "2023-09-15 15:15",
      "count": 63
    },
    {
      "id": "L12786398",
      "country": "ZA",
      "countryCode": "ZA-EC",
      "latitude": -33.4482349,
      "longitude": 25.7997276,
      "location": "Addo Elephant NP--Gorah Loop",
      "date": "2023-11-05 06:00",
      "count": 84
    },
    {
      "id": "L12778317",
      "country": "ZA",
      "countryCode": "ZA-EC",
      "latitude": -33.5120595,
      "longitude": 25.7533441,
      "location": "Addo Elephant NP--Hapoor Dam/Rooidam Loop",
      "date": "2023-09-15 09:35",
      "count": 113
    },
    {
      "id": "L15954178",
      "country": "ZA",
      "countryCode": "ZA-EC",
      "latitude": -33.5382737,
      "longitude": 25.6823015,
      "location": "Addo Elephant NP--Homestead (outside of park)",
      "date": "2023-11-05 07:04",
      "count": 63
    },
    {
      "id": "L12778309",
      "country": "ZA",
      "countryCode": "ZA-EC",
      "latitude": -33.516356,
      "longitude": 25.7617088,
      "location": "Addo Elephant NP--Jack's Picnic Site Botanical Reserve",
      "date": "2023-09-30 10:33",
      "count": 133
    },
    {
      "id": "L12777308",
      "country": "ZA",
      "countryCode": "ZA-EC",
      "latitude": -33.6677103,
      "longitude": 25.8134175,
      "location": "Addo Elephant NP--Mathyolweni Gate to Vukani Loop",
      "date": "2023-04-11 11:07",
      "count": 92
    },
    {
      "id": "L12786168",
      "country": "ZA",
      "countryCode": "ZA-EC",
      "latitude": -33.4395972,
      "longitude": 25.7820679,
      "location": "Addo Elephant NP--Nzipondo Loop",
      "date": "2023-10-20 06:39",
      "count": 133
    },
    {
      "id": "L12684982",
      "country": "ZA",
      "countryCode": "ZA-EC",
      "latitude": -33.4262358,
      "longitude": 25.7533822,
      "location": "Addo Elephant NP--Riverbend Lodge",
      "date": "2023-04-15 15:10",
      "count": 190
    },
    {
      "id": "L12778325",
      "country": "ZA",
      "countryCode": "ZA-EC",
      "latitude": -33.4512828,
      "longitude": 25.769816,
      "location": "Addo Elephant NP--Southern Access Road (Between Rest Camp Gate and Mpunzi Loop)",
      "date": "2023-10-16 14:35",
      "count": 80
    },
    {
      "id": "L12778300",
      "country": "ZA",
      "countryCode": "ZA-EC",
      "latitude": -33.6243591,
      "longitude": 25.8288575,
      "location": "Addo Elephant NP--Southern Access Road (Between Thru-road & Vukani Loop)",
      "date": "2023-03-25 09:23",
      "count": 61
    },
    {
      "id": "L12778306",
      "country": "ZA",
      "countryCode": "ZA-EC",
      "latitude": -33.5680526,
      "longitude": 25.8059275,
      "location": "Addo Elephant NP--Southern Access Road (between Mpunzi Loop & Thru-road)",
      "date": "2023-11-05 11:07",
      "count": 99
    },
    {
      "id": "L12778298",
      "country": "ZA",
      "countryCode": "ZA-EC",
      "latitude": -33.6392818,
      "longitude": 25.8193483,
      "location": "Addo Elephant NP--Vukani Loop",
      "date": "2023-03-25 17:26",
      "count": 66
    },
    {
      "id": "L12786234",
      "country": "ZA",
      "countryCode": "ZA-EC",
      "latitude": -33.443433,
      "longitude": 25.7944255,
      "location": "Addo Elephant NP--Woodlands Loop",
      "date": "2023-01-30 16:26",
      "count": 86
    },
    {
      "id": "L2347098",
      "country": "ZA",
      "countryCode": "ZA-EC",
      "latitude": -33.7323346,
      "longitude": 26.3744545,
      "location": "Addo Elephant NP--Woody Cape",
      "date": "2022-12-21 05:11",
      "count": 133
    },
    {
      "id": "L5430024",
      "country": "ZA",
      "countryCode": "ZA-EC",
      "latitude": -33.9178294,
      "longitude": 25.1114121,
      "location": "African Dawn Wildlife Sanctuary",
      "date": "2017-05-03 13:15",
      "count": 28
    },
    {
      "id": "L7060244",
      "country": "ZA",
      "countryCode": "ZA-NW",
      "latitude": -25.4461036,
      "longitude": 27.0587254,
      "location": "African Elegance Tented Lodge",
      "date": "2018-05-16 07:00",
      "count": 65
    },
    {
      "id": "L4533464",
      "country": "ZA",
      "countryCode": "ZA-GT",
      "latitude": -25.8754162,
      "longitude": 28.2098578,
      "location": "African Pride Irene Country Lodge",
      "date": "2023-09-08 10:59",
      "count": 70
    },
    {
      "id": "L3062504",
      "country": "ZA",
      "countryCode": "ZA-WC",
      "latitude": -31.9262,
      "longitude": 23.3589,
      "location": "Afrikaroo",
      "date": "2014-05-31 10:00",
      "count": 84
    },
    {
      "id": "L2587016",
      "country": "ZA",
      "countryCode": "ZA-WC",
      "latitude": -34.6518501,
      "longitude": 19.9848175,
      "location": "Agulhas Farmlands",
      "date": "2023-01-17 05:00",
      "count": 131
    },
    {
      "id": "L16214233",
      "country": "ZA",
      "countryCode": "ZA-WC",
      "latitude": -34.725585,
      "longitude": 19.951757,
      "location": "Agulhas N--Soutbosch",
      "date": "2023-11-07 16:18",
      "count": 137
    },
    {
      "id": "L1623502",
      "country": "ZA",
      "countryCode": "ZA-WC",
      "latitude": -34.7271291,
      "longitude": 19.9121704,
      "location": "Agulhas NP",
      "date": "2023-08-29 07:14",
      "count": 164
    },
    {
      "id": "L1070243",
      "country": "ZA",
      "countryCode": "ZA-WC",
      "latitude": -34.2359694,
      "longitude": 20.3969192,
      "location": "Agulhas Plains (general area)",
      "date": "2023-10-23 15:32",
      "count": 190
    },
    {
      "id": "L2593151",
      "country": "ZA",
      "countryCode": "ZA-WC",
      "latitude": -34.1819668,
      "longitude": 20.5649757,
      "location": "Agulhas Plains--Malgas to N2",
      "date": "2023-11-08 14:49",
      "count": 176
    },
    {
      "id": "L1428644",
      "country": "ZA",
      "countryCode": "ZA-GT",
      "latitude": -26.0723882,
      "longitude": 28.2964776,
      "location": "Airport Game Lodge",
      "date": "2023-08-15 10:32",
      "count": 109
    },
    {
      "id": "L2953756",
      "country": "ZA",
      "countryCode": "ZA-NC",
      "latitude": -31.4386523,
      "longitude": 19.7719574,
      "location": "Akkerendam Nature Reserve",
      "date": "2023-10-05 06:43",
      "count": 165
    },
    {
      "id": "L4630586",
      "country": "ZA",
      "countryCode": "ZA-LP",
      "latitude": -23.107602,
      "longitude": 30.1256704,
      "location": "Albasini Dam",
      "date": "2018-11-23 10:45",
      "count": 167
    },
    {
      "id": "L1955862",
      "country": "ZA",
      "countryCode": "ZA-NL",
      "latitude": -29.4611333,
      "longitude": 30.3756082,
      "location": "Albert Falls NR",
      "date": "2023-03-05 06:23",
      "count": 246
    },
    {
      "id": "L7629926",
      "country": "ZA",
      "countryCode": "ZA-GT",
      "latitude": -26.1557461,
      "longitude": 27.9708481,
      "location": "Albert's Farm",
      "date": "2023-11-04 09:40",
      "count": 93
    },
    {
      "id": "L1122463",
      "country": "ZA",
      "countryCode": "ZA-NC",
      "latitude": -28.6005,
      "longitude": 16.4801,
      "location": "Alexander Bay",
      "date": "2021-09-11 10:37",
      "count": 153
    },
    {
      "id": "L21625629",
      "country": "ZA",
      "countryCode": "ZA-EC",
      "latitude": -33.700707,
      "longitude": 26.357309,
      "location": "Alexandria Forest",
      "date": "2023-09-20 18:01",
      "count": 49
    },
    {
      "id": "L2285830",
      "country": "ZA",
      "countryCode": "ZA-EC",
      "latitude": -33.7245681,
      "longitude": 26.3845776,
      "location": "Alexandria Forests",
      "date": "2022-11-23 12:01",
      "count": 128
    },
    {
      "id": "L8608074",
      "country": "ZA",
      "countryCode": "ZA-FS",
      "latitude": -28.250176,
      "longitude": 29.3110431,
      "location": "Alexpan",
      "date": "2021-10-14 09:21",
      "count": 92
    },
    {
      "id": "L17005936",
      "country": "ZA",
      "countryCode": "ZA-EC",
      "latitude": -30.6894349,
      "longitude": 26.7409896,
      "location": "Aliwal North--Kraai River",
      "date": "2023-07-01 10:25",
      "count": 44
    },
    {
      "id": "L9863428",
      "country": "ZA",
      "countryCode": "ZA-NL",
      "latitude": -30.2429601,
      "longitude": 30.8277686,
      "location": "Aliwal Shoal MPA",
      "date": "2022-08-26 14:23",
      "count": 11
    },
    {
      "id": "L9894668",
      "country": "ZA",
      "countryCode": "ZA-LP",
      "latitude": -22.682,
      "longitude": 29.1035,
      "location": "Alldays--Town",
      "date": "2014-01-05 11:00",
      "count": 32
    },
    {
      "id": "L3059651",
      "country": "ZA",
      "countryCode": "ZA-WC",
      "latitude": -34.1307649,
      "longitude": 20.5125355,
      "location": "Aloe Ridge",
      "date": "2021-10-16 16:00",
      "count": 123
    },
    {
      "id": "L2345747",
      "country": "ZA",
      "countryCode": "ZA-MP",
      "latitude": -25.8336942,
      "longitude": 29.7926581,
      "location": "Alzu Rest Stop",
      "date": "2023-11-05 16:18",
      "count": 148
    },
    {
      "id": "L9641777",
      "country": "ZA",
      "countryCode": "ZA-LP",
      "latitude": -24.5224868,
      "longitude": 30.8862734,
      "location": "Amafu Forest Lodge",
      "date": "2022-01-30 07:00",
      "count": 95
    },
    {
      "id": "L3615005",
      "country": "ZA",
      "countryCode": "ZA-EC",
      "latitude": -33.5368876,
      "longitude": 26.1184072,
      "location": "Amakhala Game Reserve",
      "date": "2023-09-12 13:28",
      "count": 190
    },
    {
      "id": "L27714640",
      "country": "ZA",
      "countryCode": "ZA-NL",
      "latitude": -27.6579726,
      "longitude": 31.6296733,
      "location": "Amakhosi Safari Lodge",
      "date": "2023-10-24 16:00",
      "count": 7
    },
    {
      "id": "L12705415",
      "country": "ZA",
      "countryCode": "ZA-NL",
      "latitude": -30.0390008,
      "longitude": 30.8998182,
      "location": "Amanzimtoti Beach",
      "date": "2022-07-10 12:00",
      "count": 67
    },
    {
      "id": "L7111470",
      "country": "ZA",
      "countryCode": "ZA-NL",
      "latitude": -30.0355655,
      "longitude": 30.8926276,
      "location": "Amanzimtoti Bird Sanctuary",
      "date": "2023-10-07 07:21",
      "count": 139
    },
    {
      "id": "L2589539",
      "country": "ZA",
      "countryCode": "ZA-NL",
      "latitude": -29.118649,
      "longitude": 31.602166,
      "location": "Amatikulu NR",
      "date": "2023-10-20 09:20",
      "count": 272
    },
    {
      "id": "L15556375",
      "country": "ZA",
      "countryCode": "ZA-MP",
      "latitude": -25.368,
      "longitude": 31.758,
      "location": "Amazing Kruger View Restaurant",
      "date": "2023-10-03 14:02",
      "count": 96
    },
    {
      "id": "L9530873",
      "country": "ZA",
      "countryCode": "ZA-MP",
      "latitude": -27.0007028,
      "longitude": 29.8876552,
      "location": "Amersfoort",
      "date": "2023-09-05 16:00",
      "count": 117
    },
    {
      "id": "L3841268",
      "country": "ZA",
      "countryCode": "ZA-NL",
      "latitude": -27.897892,
      "longitude": 32.363768,
      "location": "Amorello Bush Golf Lodge",
      "date": "2018-09-17 00:00",
      "count": 11
    },
    {
      "id": "L8629128",
      "country": "ZA",
      "countryCode": "ZA-LP",
      "latitude": -24.093825,
      "longitude": 28.053886,
      "location": "Ant's Lodge",
      "date": "2017-12-08 15:02",
      "count": 73
    },
    {
      "id": "L4940007",
      "country": "ZA",
      "countryCode": "ZA-WC",
      "latitude": -33.4691819,
      "longitude": 20.5927134,
      "location": "Anysberg Nature Reserve",
      "date": "2023-01-25 11:10",
      "count": 106
    },
    {
      "id": "L5872453",
      "country": "ZA",
      "countryCode": "ZA-WC",
      "latitude": -33.3516093,
      "longitude": 19.9354219,
      "location": "Aquila Safari Private Game Reserve",
      "date": "2023-11-01 11:54",
      "count": 105
    },
    {
      "id": "L26975612",
      "country": "ZA",
      "countryCode": "ZA-WC",
      "latitude": -33.987,
      "longitude": 18.465,
      "location": "Arderne Gardens",
      "date": "2023-09-28 09:54",
      "count": 16
    },
    {
      "id": "L19837270",
      "country": "ZA",
      "countryCode": "ZA-EC",
      "latitude": -32.8836772,
      "longitude": 28.0613284,
      "location": "Areena Riverside Resort",
      "date": "2023-04-21 14:46",
      "count": 62
    },
    {
      "id": "L20039029",
      "country": "ZA",
      "countryCode": "ZA-NW",
      "latitude": -25.56257,
      "longitude": 27.765344,
      "location": "Arotin Game Lodge",
      "date": "2022-07-10 08:10",
      "count": 59
    },
    {
      "id": "L1122457",
      "country": "ZA",
      "countryCode": "ZA-NC",
      "latitude": -26.9807,
      "longitude": 20.7819,
      "location": "Askham",
      "date": "2023-09-05 10:34",
      "count": 72
    },
    {
      "id": "L6366473",
      "country": "ZA",
      "countryCode": "ZA-WC",
      "latitude": -33.9678507,
      "longitude": 18.9219761,
      "location": "Assegaaibosch Nature Reserve",
      "date": "2023-09-26 14:27",
      "count": 76
    },
    {
      "id": "L9811816",
      "country": "ZA",
      "countryCode": "ZA-NW",
      "latitude": -25.1260602,
      "longitude": 27.6248098,
      "location": "Assen road--Pienaars River bridge",
      "date": "2023-02-26 13:16",
      "count": 162
    },
    {
      "id": "L2607041",
      "country": "ZA",
      "countryCode": "ZA-LP",
      "latitude": -24.5133881,
      "longitude": 26.7737597,
      "location": "Atherstone Nature Reserve"
    },
    {
      "id": "L3992950",
      "country": "ZA",
      "countryCode": "ZA-WC",
      "latitude": -33.9482444,
      "longitude": 18.5130036,
      "location": "Athlone Power Station--Peregrine Falcon Nest",
      "date": "2023-03-17 05:26",
      "count": 13
    },
    {
      "id": "L26399395",
      "country": "ZA",
      "countryCode": "ZA-WC",
      "latitude": -33.5674325,
      "longitude": 18.4147743,
      "location": "Atlantis Wetland",
      "date": "2023-09-02 13:33",
      "count": 62
    },
    {
      "id": "L1486986",
      "country": "ZA",
      "countryCode": "ZA-NC",
      "latitude": -28.6679629,
      "longitude": 20.4250711,
      "location": "Augrabies (Town)",
      "date": "2023-01-24 15:00",
      "count": 50
    },
    {
      "id": "L936081",
      "country": "ZA",
      "countryCode": "ZA-NC",
      "latitude": -28.5922844,
      "longitude": 20.3365409,
      "location": "Augrabies Falls NP",
      "date": "2023-10-30 16:50",
      "count": 269
    },
    {
      "id": "L5604793",
      "country": "ZA",
      "countryCode": "ZA-NC",
      "latitude": -28.5922232,
      "longitude": 20.3344917,
      "location": "Augrabies Falls NP--Campground",
      "date": "2023-10-30 17:20",
      "count": 142
    },
    {
      "id": "L21301092",
      "country": "ZA",
      "countryCode": "ZA-NC",
      "latitude": -28.6226892,
      "longitude": 20.3478813,
      "location": "Augrabies--camping and river",
      "date": "2022-12-02 14:08",
      "count": 89
    },
    {
      "id": "L996110",
      "country": "ZA",
      "countryCode": "ZA-GT",
      "latitude": -25.7703491,
      "longitude": 28.2274175,
      "location": "Austin Roberts Bird Sanctuary",
      "date": "2023-11-09 09:41",
      "count": 163
    },
    {
      "id": "L10117862",
      "country": "ZA",
      "countryCode": "ZA-LP",
      "latitude": -22.4332046,
      "longitude": 30.9404182,
      "location": "Awelani Lodge",
      "date": "2022-08-25 08:36",
      "count": 5
    },
    {
      "id": "L10712398",
      "country": "ZA",
      "countryCode": "ZA-LP",
      "latitude": -22.433527,
      "longitude": 30.9403915,
      "location": "Awelani Lodge",
      "date": "2019-07-02 06:30",
      "count": 51
    },
    {
      "id": "L2727075",
      "country": "ZA",
      "countryCode": "ZA-EC",
      "latitude": -33.954454,
      "longitude": 25.5488348,
      "location": "Baakens Valley--3rd Ave to The Knoll",
      "date": "2023-02-05 08:23",
      "count": 74
    },
    {
      "id": "L13691135",
      "country": "ZA",
      "countryCode": "ZA-NL",
      "latitude": -28.1956817,
      "longitude": 31.0897482,
      "location": "Babanango GR",
      "date": "2023-06-17 06:12",
      "count": 132
    },
    {
      "id": "L21802237",
      "country": "ZA",
      "countryCode": "ZA-WC",
      "latitude": -33.822503,
      "longitude": 18.9299798,
      "location": "Babylonstoren",
      "date": "2022-12-15 11:00",
      "count": 33
    },
    {
      "id": "L9838389",
      "country": "ZA",
      "countryCode": "ZA-WC",
      "latitude": -33.8248339,
      "longitude": 18.9260648,
      "location": "Babylonstoren Farm",
      "date": "2023-11-02 15:32",
      "count": 94
    },
    {
      "id": "L27349783",
      "country": "ZA",
      "countryCode": "ZA-WC",
      "latitude": -34.0965776,
      "longitude": 18.5037984,
      "location": "Baden Powell Estuary",
      "date": "2023-11-08 15:58",
      "count": 23
    },
    {
      "id": "L1482958",
      "country": "ZA",
      "countryCode": "ZA-WC",
      "latitude": -33.6191686,
      "longitude": 19.0990559,
      "location": "Bain's Kloof Pass",
      "date": "2023-10-13 12:45",
      "count": 109
    },
    {
      "id": "L21317786",
      "country": "ZA",
      "countryCode": "ZA-EC",
      "latitude": -32.8436308,
      "longitude": 27.4096967,
      "location": "Balazie",
      "date": "2023-08-09 13:36",
      "count": 74
    },
    {
      "id": "L12602073",
      "country": "ZA",
      "countryCode": "ZA-NL",
      "latitude": -29.385702,
      "longitude": 30.055941,
      "location": "Balgowan--Beacon Vlei GF",
      "date": "2020-10-26 13:24",
      "count": 65
    },
    {
      "id": "L4826016",
      "country": "ZA",
      "countryCode": "ZA-NL",
      "latitude": -29.3930938,
      "longitude": 30.0801158,
      "location": "Balgowan--Midlands Forest Lodge",
      "date": "2020-01-06 09:25",
      "count": 45
    },
    {
      "id": "L16799928",
      "country": "ZA",
      "countryCode": "ZA-NL",
      "latitude": -29.538236,
      "longitude": 31.2214994,
      "location": "Ballito",
      "date": "2023-10-28 08:13",
      "count": 150
    },
    {
      "id": "L21678543",
      "country": "ZA",
      "countryCode": "ZA-NL",
      "latitude": -29.4928697,
      "longitude": 31.1801981,
      "location": "Ballito--Holla Trails",
      "date": "2023-10-14 13:22",
      "count": 60
    },
    {
      "id": "L13170425",
      "country": "ZA",
      "countryCode": "ZA-NL",
      "latitude": -29.5354094,
      "longitude": 31.2019803,
      "location": "Ballito--Seaward Estate",
      "date": "2023-11-09 19:15",
      "count": 148
    },
    {
      "id": "L14068336",
      "country": "ZA",
      "countryCode": "ZA-WC",
      "latitude": -34.0125424,
      "longitude": 22.5420356,
      "location": "Ballots Bay",
      "date": "2021-02-05 14:00",
      "count": 4
    },
    {
      "id": "L9530866",
      "country": "ZA",
      "countryCode": "ZA-LP",
      "latitude": -24.2531802,
      "longitude": 30.9106382,
      "location": "Balule NR",
      "date": "2023-10-22 05:30",
      "count": 175
    },
    {
      "id": "L6575324",
      "country": "ZA",
      "countryCode": "ZA-LP",
      "latitude": -24.1141289,
      "longitude": 31.03035,
      "location": "Baluleni Safari Lodge",
      "date": "2023-08-11 05:59",
      "count": 71
    },
    {
      "id": "L16347997",
      "country": "ZA",
      "countryCode": "ZA-WC",
      "latitude": -33.9150348,
      "longitude": 18.9798093,
      "location": "Banhoek Conservancy",
      "date": "2023-02-27 09:15",
      "count": 84
    },
    {
      "id": "L9935661",
      "country": "ZA",
      "countryCode": "ZA-MP",
      "latitude": -25.4847233,
      "longitude": 29.3806582,
      "location": "Bankplaas Road",
      "date": "2022-05-01 05:49",
      "count": 230
    },
    {
      "id": "L4998057",
      "country": "ZA",
      "countryCode": "ZA-WC",
      "latitude": -33.9256466,
      "longitude": 18.3782945,
      "location": "Bantry Bay",
      "date": "2023-10-15 08:10",
      "count": 50
    },
    {
      "id": "L26497293",
      "country": "ZA",
      "countryCode": "ZA-GT",
      "latitude": -26.033839,
      "longitude": 28.417854,
      "location": "Bapsfontein pans",
      "date": "2023-08-09 07:00",
      "count": 61
    },
    {
      "id": "L24987145",
      "country": "ZA",
      "countryCode": "ZA-GT",
      "latitude": -25.9671979,
      "longitude": 28.5549498,
      "location": "Bapsfontein to Rayton route",
      "date": "2023-06-04 14:34",
      "count": 53
    },
    {
      "id": "L1366994",
      "country": "ZA",
      "countryCode": "ZA-NW",
      "latitude": -26.5864374,
      "longitude": 25.5857514,
      "location": "Barberspan Bird Sanctuary",
      "date": "2023-10-25 17:40",
      "count": 276
    },
    {
      "id": "L11115096",
      "country": "ZA",
      "countryCode": "ZA-MP",
      "latitude": -25.608611,
      "longitude": 30.978904,
      "location": "Barberton Nature Reserve",
      "date": "2019-05-04 08:41",
      "count": 59
    },
    {
      "id": "L8823823",
      "country": "ZA",
      "countryCode": "ZA-MP",
      "latitude": -25.8097047,
      "longitude": 31.1240959,
      "location": "Barberton Nature Reserve",
      "date": "2023-09-25 06:08",
      "count": 280
    },
    {
      "id": "L6353350",
      "country": "ZA",
      "countryCode": "ZA-MP",
      "latitude": -25.6968388,
      "longitude": 31.0732841,
      "location": "Barberton Nature Reserve--Old Coach Road",
      "date": "2022-07-09 07:00",
      "count": 120
    },
    {
      "id": "L9885450",
      "country": "ZA",
      "countryCode": "ZA-NC",
      "latitude": -28.5383,
      "longitude": 24.52248,
      "location": "Barkly West--Town",
      "date": "2020-01-24 13:44",
      "count": 54
    },
    {
      "id": "L15021293",
      "country": "ZA",
      "countryCode": "ZA-GT",
      "latitude": -26.086841,
      "longitude": 27.9564607,
      "location": "Bartlett Park, Boskruin",
      "date": "2022-02-01 18:22",
      "count": 41
    },
    {
      "id": "L24163104",
      "country": "ZA",
      "countryCode": "ZA-WC",
      "latitude": -34.2031034,
      "longitude": 18.3979583,
      "location": "Baskloof Fynbos Private Nature Reserve",
      "date": "2023-08-12 10:00",
      "count": 39
    },
    {
      "id": "L14850098",
      "country": "ZA",
      "countryCode": "ZA-WC",
      "latitude": -34.189379,
      "longitude": 18.371268,
      "location": "Baskloof NR--Platberg Peak",
      "date": "2023-05-28 13:17",
      "count": 15
    },
    {
      "id": "L5845603",
      "country": "ZA",
      "countryCode": "ZA-LP",
      "latitude": -24.674942,
      "longitude": 28.1931067,
      "location": "Bateleur Nature Reserve",
      "date": "2020-07-19 15:49",
      "count": 129
    },
    {
      "id": "L18473015",
      "country": "ZA",
      "countryCode": "ZA-EC",
      "latitude": -32.9747583,
      "longitude": 27.9266225,
      "location": "Batting Bridge Park",
      "date": "2023-01-02 06:55",
      "count": 47
    },
    {
      "id": "L6317228",
      "country": "ZA",
      "countryCode": "ZA-EC",
      "latitude": -33.5563807,
      "longitude": 24.0623975,
      "location": "Baviaanskloof",
      "date": "2022-07-04 00:35",
      "count": 162
    },
    {
      "id": "L13104498",
      "country": "ZA",
      "countryCode": "ZA-EC",
      "latitude": -33.6531045,
      "longitude": 24.520167,
      "location": "Baviaanskloof Nature Reserve",
      "date": "2021-01-16 10:49",
      "count": 19
    },
    {
      "id": "L21193626",
      "country": "ZA",
      "countryCode": "ZA-NL",
      "latitude": -27.774,
      "longitude": 32.132,
      "location": "Bayala Nyala Breeders Lodge",
      "date": "2023-09-25 06:35",
      "count": 92
    },
    {
      "id": "L14797470",
      "country": "ZA",
      "countryCode": "ZA-WC",
      "latitude": -32.3791876,
      "longitude": 22.5856511,
      "location": "Beaufort West WTP",
      "date": "2023-11-04 18:13",
      "count": 181
    },
    {
      "id": "L9110482",
      "country": "ZA",
      "countryCode": "ZA-GT",
      "latitude": -25.9789967,
      "longitude": 28.0686236,
      "location": "Beaulieu Bird Sanctuary",
      "date": "2023-03-26 15:15",
      "count": 125
    },
    {
      "id": "L8136831",
      "country": "ZA",
      "countryCode": "ZA-WC",
      "latitude": -32.9076771,
      "longitude": 19.0681467,
      "location": "Beaverlac",
      "date": "2023-09-02 08:00",
      "count": 82
    },
    {
      "id": "L21422586",
      "country": "ZA",
      "countryCode": "ZA-EC",
      "latitude": -32.6867912,
      "longitude": 26.1987558,
      "location": "Bedford--Adelaide district",
      "date": "2023-05-17 06:40",
      "count": 112
    },
    {
      "id": "L2054575",
      "country": "ZA",
      "countryCode": "ZA-GT",
      "latitude": -26.1844791,
      "longitude": 28.1309223,
      "location": "Bedfordview--Rotary Park",
      "date": "2019-08-09 15:34",
      "count": 41
    },
    {
      "id": "L22025681",
      "country": "ZA",
      "countryCode": "ZA-WC",
      "latitude": -33.9149382,
      "longitude": 22.7309165,
      "location": "Beervlei Section - Outeniqua Hike - SAN Parks",
      "date": "2022-12-30 07:30",
      "count": 40
    },
    {
      "id": "L973174",
      "country": "ZA",
      "countryCode": "ZA-LP",
      "latitude": -24.8940666,
      "longitude": 28.2809544,
      "location": "Bela-Bela",
      "date": "2023-09-06 01:33",
      "count": 222
    },
    {
      "id": "L16080281",
      "country": "ZA",
      "countryCode": "ZA-MP",
      "latitude": -25.68313,
      "longitude": 30.0276085,
      "location": "Belfast",
      "date": "2023-08-09 08:53",
      "count": 211
    },
    {
      "id": "L17522607",
      "country": "ZA",
      "countryCode": "ZA-WC",
      "latitude": -34.0137696,
      "longitude": 18.4260678,
      "location": "Belle Ombre Meadow",
      "date": "2023-10-05 13:53",
      "count": 68
    },
    {
      "id": "L4027046",
      "country": "ZA",
      "countryCode": "ZA-EC",
      "latitude": -33.32,
      "longitude": 26.584,
      "location": "Belmont Valley",
      "date": "2023-01-28 15:55",
      "count": 94
    },
    {
      "id": "L2508864",
      "country": "ZA",
      "countryCode": "ZA-LP",
      "latitude": -24.6048061,
      "longitude": 27.3593044,
      "location": "Ben Alberts Nature Reserve",
      "date": "2014-10-15 00:00",
      "count": 71
    },
    {
      "id": "L4694582",
      "country": "ZA",
      "countryCode": "ZA-LP",
      "latitude": -23.1255394,
      "longitude": 29.9540091,
      "location": "Ben Lavin Nature Reserve",
      "date": "2017-01-16 07:00",
      "count": 118
    },
    {
      "id": "L3565457",
      "country": "ZA",
      "countryCode": "ZA-FS",
      "latitude": -28.8240957,
      "longitude": 24.8207116,
      "location": "Benfontein NR",
      "date": "2023-09-18 14:30",
      "count": 292
    },
    {
      "id": "L2557725",
      "country": "ZA",
      "countryCode": "ZA-WC",
      "latitude": -33.90873,
      "longitude": 19.05821,
      "location": "Berg River Dam",
      "date": "2023-06-22 11:00",
      "count": 39
    },
    {
      "id": "L930911",
      "country": "ZA",
      "countryCode": "ZA-WC",
      "latitude": -32.7899037,
      "longitude": 18.173503,
      "location": "Berg River Estuary",
      "date": "2023-10-28 17:43",
      "count": 204
    },
    {
      "id": "L19665727",
      "country": "ZA",
      "countryCode": "ZA-WC",
      "latitude": -32.7937792,
      "longitude": 18.2081783,
      "location": "Berg River Estuary--De Plaat",
      "date": "2023-10-08 07:03",
      "count": 124
    },
    {
      "id": "L2586133",
      "country": "ZA",
      "countryCode": "ZA-WC",
      "latitude": -32.7700851,
      "longitude": 18.1444287,
      "location": "Berg River Mouth",
      "date": "2023-09-30 16:40",
      "count": 66
    },
    {
      "id": "L4209791",
      "country": "ZA",
      "countryCode": "ZA-LP",
      "latitude": -22.9689832,
      "longitude": 29.3290329,
      "location": "Bergpan Resort",
      "date": "2016-01-09 08:13",
      "count": 11
    },
    {
      "id": "L27531554",
      "country": "ZA",
      "countryCode": "ZA-WC",
      "latitude": -33.921413,
      "longitude": 22.67107,
      "location": "Bergplaas Road",
      "date": "2023-10-14 10:04",
      "count": 30
    },
    {
      "id": "L9882308",
      "country": "ZA",
      "countryCode": "ZA-NL",
      "latitude": -28.73254,
      "longitude": 29.35061,
      "location": "Bergville--Town (area bordered by the Tugela river and the R616)",
      "date": "2023-07-31 11:18",
      "count": 51
    },
    {
      "id": "L9840290",
      "country": "ZA",
      "countryCode": "ZA-MP",
      "latitude": -24.8444496,
      "longitude": 30.8420633,
      "location": "Berlin Falls",
      "date": "2023-09-30 13:09",
      "count": 40
    },
    {
      "id": "L9879250",
      "country": "ZA",
      "countryCode": "ZA-MP",
      "latitude": -25.826386,
      "longitude": 30.344073,
      "location": "Bermanzi Hiking Trail",
      "date": "2008-07-20 07:00",
      "count": 16
    },
    {
      "id": "L9898823",
      "country": "ZA",
      "countryCode": "ZA-MP",
      "latitude": -26.46112,
      "longitude": 29.46938,
      "location": "Bethal",
      "date": "2023-10-05 09:47",
      "count": 20
    },
    {
      "id": "L1070152",
      "country": "ZA",
      "countryCode": "ZA-WC",
      "latitude": -34.3654731,
      "longitude": 18.8887167,
      "location": "Betty's Bay (general area)",
      "date": "2023-10-05 07:46",
      "count": 159
    },
    {
      "id": "L16496919",
      "country": "ZA",
      "countryCode": "ZA-WC",
      "latitude": -34.3541436,
      "longitude": 18.9182703,
      "location": "Betty's Bay--Bass Rd Commons",
      "date": "2023-08-21 12:33",
      "count": 71
    },
    {
      "id": "L16539648",
      "country": "ZA",
      "countryCode": "ZA-WC",
      "latitude": -34.3576868,
      "longitude": 18.9219583,
      "location": "Betty's Bay--Dawidskraal Mouth",
      "date": "2023-04-30 11:56",
      "count": 94
    },
    {
      "id": "L25983541",
      "country": "ZA",
      "countryCode": "ZA-WC",
      "latitude": -34.3577734,
      "longitude": 18.9255176,
      "location": "Betty's Bay--Dawidskraal Mouth",
      "date": "2023-11-04 08:30",
      "count": 41
    },
    {
      "id": "L10999259",
      "country": "ZA",
      "countryCode": "ZA-WC",
      "latitude": -34.3633106,
      "longitude": 18.8862831,
      "location": "Betty's Bay--Grootwitvlei",
      "date": "2023-10-05 06:22",
      "count": 55
    },
    {
      "id": "L9935663",
      "country": "ZA",
      "countryCode": "ZA-MP",
      "latitude": -25.73741,
      "longitude": 29.33796,
      "location": "Bezuidenhouthoek Farm",
      "date": "2023-08-26 11:23",
      "count": 201
    },
    {
      "id": "L3904785",
      "country": "ZA",
      "countryCode": "ZA-NL",
      "latitude": -27.0110376,
      "longitude": 32.8635836,
      "location": "Bhanga Nek Campsite",
      "date": "2022-12-02 07:00",
      "count": 50
    },
    {
      "id": "L3895485",
      "country": "ZA",
      "countryCode": "ZA-WC",
      "latitude": -32.1284972,
      "longitude": 19.333663,
      "location": "Biedouw Valley",
      "date": "2023-03-25 13:58",
      "count": 111
    },
    {
      "id": "L2965858",
      "country": "ZA",
      "countryCode": "ZA-LP",
      "latitude": -24.9131191,
      "longitude": 27.1418953,
      "location": "Bierspruitdam",
      "date": "2023-01-04 05:45",
      "count": 182
    },
    {
      "id": "L9929266",
      "country": "ZA",
      "countryCode": "ZA-LP",
      "latitude": -23.0243,
      "longitude": 27.96215,
      "location": "Big Fig Inn",
      "date": "2016-10-15 06:00",
      "count": 17
    },
    {
      "id": "L936056",
      "country": "ZA",
      "countryCode": "ZA-WC",
      "latitude": -32.0891194,
      "longitude": 18.3010769,
      "location": "Bird Island NR",
      "date": "2023-10-14 13:10",
      "count": 169
    },
    {
      "id": "L6221920",
      "country": "ZA",
      "countryCode": "ZA-WC",
      "latitude": -33.7342836,
      "longitude": 18.454108,
      "location": "Birkenhead Drive Wetland",
      "date": "2023-08-09 10:57",
      "count": 75
    },
    {
      "id": "L21312722",
      "country": "ZA",
      "countryCode": "ZA-EC",
      "latitude": -32.8528975,
      "longitude": 27.4305017,
      "location": "Bisho District",
      "date": "2022-10-22 16:02",
      "count": 39
    },
    {
      "id": "L4821136",
      "country": "ZA",
      "countryCode": "ZA-GT",
      "latitude": -25.8777877,
      "longitude": 28.1454814,
      "location": "Bishop Bird Park",
      "date": "2023-10-22 07:21",
      "count": 109
    },
    {
      "id": "L972551",
      "country": "ZA",
      "countryCode": "ZA-WC",
      "latitude": -34.0061532,
      "longitude": 23.3645339,
      "location": "Bitou River Valley",
      "date": "2023-11-07 06:41",
      "count": 245
    },
    {
      "id": "L11242428",
      "country": "ZA",
      "countryCode": "ZA-NL",
      "latitude": -27.4972565,
      "longitude": 31.0079189,
      "location": "Bivane Dam",
      "date": "2022-08-17 09:25",
      "count": 129
    },
    {
      "id": "L3918988",
      "country": "ZA",
      "countryCode": "ZA-GT",
      "latitude": -26.1236642,
      "longitude": 28.2697535,
      "location": "Blaaupan",
      "date": "2023-11-08 08:34",
      "count": 104
    },
    {
      "id": "L4379555",
      "country": "ZA",
      "countryCode": "ZA-WC",
      "latitude": -33.7600971,
      "longitude": 18.4685755,
      "location": "Blaauwberg NR",
      "date": "2022-12-20 06:16",
      "count": 67
    },
    {
      "id": "L7205231",
      "country": "ZA",
      "countryCode": "ZA-WC",
      "latitude": -33.970173,
      "longitude": 18.8452703,
      "location": "Blaauwklippen Wine Estate (restricted access)",
      "date": "2023-11-01 14:45",
      "count": 74
    },
    {
      "id": "L22733816",
      "country": "ZA",
      "countryCode": "ZA-GT",
      "latitude": -25.9536322,
      "longitude": 27.5371211,
      "location": "Black Horse Brewery",
      "date": "2023-02-19 13:10",
      "count": 35
    },
    {
      "id": "L12928953",
      "country": "ZA",
      "countryCode": "ZA-WC",
      "latitude": -33.9508845,
      "longitude": 18.5022169,
      "location": "Black River--Hazendal area",
      "date": "2023-09-11 11:30",
      "count": 42
    },
    {
      "id": "L10348231",
      "country": "ZA",
      "countryCode": "ZA-NL",
      "latitude": -30.0665852,
      "longitude": 29.7875903,
      "location": "Black-rumped Buttonquail, Ngwagwane stakeout (restricted access)",
      "date": "2022-11-15 10:00",
      "count": 40
    },
    {
      "id": "L2704772",
      "country": "ZA",
      "countryCode": "ZA-GT",
      "latitude": -26.3904185,
      "longitude": 28.4973979,
      "location": "Blesbokspruit (from R42)",
      "date": "2020-10-17 07:00",
      "count": 91
    },
    {
      "id": "L15964757",
      "country": "ZA",
      "countryCode": "ZA-NC",
      "latitude": -32.4679701,
      "longitude": 20.4360616,
      "location": "Blesfontein",
      "date": "2021-07-13 09:20",
      "count": 10
    },
    {
      "id": "L4673140",
      "country": "ZA",
      "countryCode": "ZA-NL",
      "latitude": -29.2364549,
      "longitude": 30.4619551,
      "location": "Blinkwater NR",
      "date": "2023-09-10 17:15",
      "count": 29
    },
    {
      "id": "L20300347",
      "country": "ZA",
      "countryCode": "ZA-FS",
      "latitude": -29.1148627,
      "longitude": 26.2106323,
      "location": "Bloemfontein--Loch Logan Waterfront",
      "date": "2023-06-09 14:03",
      "count": 50
    },
    {
      "id": "L6204064",
      "country": "ZA",
      "countryCode": "ZA-FS",
      "latitude": -27.7031079,
      "longitude": 25.5105543,
      "location": "Bloemhof Dam Grasslands",
      "date": "2010-01-01 12:40",
      "count": 49
    },
    {
      "id": "L8607760",
      "country": "ZA",
      "countryCode": "ZA-NW",
      "latitude": -27.6071295,
      "longitude": 25.675402,
      "location": "Bloemhof Dam Nature Reserve",
      "date": "2023-01-24 05:20",
      "count": 125
    },
    {
      "id": "L11068323",
      "country": "ZA",
      "countryCode": "ZA-NL",
      "latitude": -27.8315079,
      "longitude": 30.5995663,
      "location": "Blood River Vlei",
      "date": "2017-05-01 06:34",
      "count": 125
    },
    {
      "id": "L3891526",
      "country": "ZA",
      "countryCode": "ZA-LP",
      "latitude": -23.0151763,
      "longitude": 29.0723991,
      "location": "Blouberg Nature Reserve",
      "date": "2023-01-18 05:45",
      "count": 181
    },
    {
      "id": "L920281",
      "country": "ZA",
      "countryCode": "ZA-WC",
      "latitude": -33.8294817,
      "longitude": 18.4833062,
      "location": "Blouberg--Dolphin Beach",
      "date": "2023-10-08 07:00",
      "count": 138
    },
    {
      "id": "L1122474",
      "country": "ZA",
      "countryCode": "ZA-WC",
      "latitude": -33.7956,
      "longitude": 18.4578,
      "location": "Bloubergstrand",
      "date": "2023-09-03 17:30",
      "count": 103
    },
    {
      "id": "L3570194",
      "country": "ZA",
      "countryCode": "ZA-EC",
      "latitude": -33.9667981,
      "longitude": 23.6472693,
      "location": "Bloukrans Bridge (Eastern Cape)",
      "date": "2022-07-03 11:00",
      "count": 64
    },
    {
      "id": "L17260064",
      "country": "ZA",
      "countryCode": "ZA-EC",
      "latitude": -32.9816792,
      "longitude": 27.956015,
      "location": "Blue Bend Nature Reserve",
      "date": "2023-10-05 05:57",
      "count": 101
    },
    {
      "id": "L21653556",
      "country": "ZA",
      "countryCode": "ZA-GT",
      "latitude": -26.065284,
      "longitude": 28.2516938,
      "location": "Blue Gill Estate"
    },
    {
      "id": "L7158681",
      "country": "ZA",
      "countryCode": "ZA-WC",
      "latitude": -33.5898128,
      "longitude": 23.4051704,
      "location": "Blue Hill Escape",
      "date": "2023-11-08 10:03",
      "count": 129
    },
    {
      "id": "L12197101",
      "country": "ZA",
      "countryCode": "ZA-MP",
      "latitude": -26.0308715,
      "longitude": 30.5364705,
      "location": "Blue Wildebeest Hiking Trail",
      "date": "2020-08-28 05:00",
      "count": 41
    },
    {
      "id": "L5581443",
      "country": "ZA",
      "countryCode": "ZA-MP",
      "latitude": -24.5410138,
      "longitude": 30.798701,
      "location": "Blyde Dam Visitor Deck",
      "date": "2023-10-10 10:00",
      "count": 107
    },
    {
      "id": "L15524377",
      "country": "ZA",
      "countryCode": "ZA-LP",
      "latitude": -24.3260008,
      "longitude": 30.8317692,
      "location": "Blyde River Bridge",
      "date": "2023-09-09 06:39",
      "count": 58
    },
    {
      "id": "L4674215",
      "country": "ZA",
      "countryCode": "ZA-MP",
      "latitude": -24.5118486,
      "longitude": 30.8348787,
      "location": "Blyde River Canyon Lodge",
      "date": "2022-05-11 06:00",
      "count": 153
    },
    {
      "id": "L949447",
      "country": "ZA",
      "countryCode": "ZA-MP",
      "latitude": -24.6060156,
      "longitude": 30.8157063,
      "location": "Blyde River Canyon NR",
      "date": "2023-11-02 14:58",
      "count": 298
    },
    {
      "id": "L923193",
      "country": "ZA",
      "countryCode": "ZA-MP",
      "latitude": -24.6741757,
      "longitude": 30.8115145,
      "location": "Blyde River Canyon NR--Bourkes Luck Potholes",
      "date": "2023-10-22 09:45",
      "count": 158
    },
    {
      "id": "L923219",
      "country": "ZA",
      "countryCode": "ZA-MP",
      "latitude": -24.5730291,
      "longitude": 30.7991259,
      "location": "Blyde River Canyon NR--Three Rondavels Lookout",
      "date": "2023-10-22 10:25",
      "count": 168
    },
    {
      "id": "L950185",
      "country": "ZA",
      "countryCode": "ZA-MP",
      "latitude": -24.5770997,
      "longitude": 30.7775116,
      "location": "Blyde River Canyon Resort",
      "date": "2023-11-04 05:47",
      "count": 239
    },
    {
      "id": "L9726799",
      "country": "ZA",
      "countryCode": "ZA-MP",
      "latitude": -24.8563441,
      "longitude": 30.8852979,
      "location": "Blyde River Canyon--Paradise Camp",
      "date": "2023-09-08 17:26",
      "count": 38
    },
    {
      "id": "L9733777",
      "country": "ZA",
      "countryCode": "ZA-MP",
      "latitude": -24.569857,
      "longitude": 30.7838251,
      "location": "Blyde River Canyon--Upper Lookout",
      "date": "2023-11-04 06:00",
      "count": 109
    },
    {
      "id": "L9878905",
      "country": "ZA",
      "countryCode": "ZA-NW",
      "latitude": -25.796699,
      "longitude": 26.746093,
      "location": "Boe-Boe's Nest Hiking Trail",
      "date": "2002-11-22 07:00",
      "count": 1
    },
    {
      "id": "L16533171",
      "country": "ZA",
      "countryCode": "ZA-LP",
      "latitude": -22.4969921,
      "longitude": 28.789344,
      "location": "Boelamien River Camp",
      "date": "2023-06-28 10:55",
      "count": 124
    },
    {
      "id": "L4968773",
      "country": "ZA",
      "countryCode": "ZA-WC",
      "latitude": -34.0165668,
      "longitude": 19.6999884,
      "location": "Boesmanskloof Hiking Trail",
      "date": "2021-06-06 10:18",
      "count": 86
    },
    {
      "id": "L13221929",
      "country": "ZA",
      "countryCode": "ZA-WC",
      "latitude": -34.265591,
      "longitude": 21.9133927,
      "location": "Boggoms Bay",
      "date": "2022-02-25 08:31",
      "count": 81
    },
    {
      "id": "L16959033",
      "country": "ZA",
      "countryCode": "ZA-WC",
      "latitude": -34.223045,
      "longitude": 21.904145,
      "location": "Boggoms Bay--Springerbaai Coastal Eco Estate",
      "date": "2023-10-21 06:27",
      "count": 88
    },
    {
      "id": "L14366773",
      "country": "ZA",
      "countryCode": "ZA-LP",
      "latitude": -23.6521135,
      "longitude": 27.1841707,
      "location": "Boikarabelo",
      "date": "2015-02-08 06:10",
      "count": 91
    },
    {
      "id": "L3082134",
      "country": "ZA",
      "countryCode": "ZA-WC",
      "latitude": -32.7316691,
      "longitude": 19.2365799,
      "location": "Bokfontein Wetlands",
      "date": "2023-09-08 15:35",
      "count": 68
    },
    {
      "id": "L5723797",
      "country": "ZA",
      "countryCode": "ZA-EC",
      "latitude": -33.724737,
      "longitude": 26.5837812,
      "location": "Boknes Lagoon",
      "date": "2023-03-16 06:52",
      "count": 103
    },
    {
      "id": "L7094820",
      "country": "ZA",
      "countryCode": "ZA-GT",
      "latitude": -25.627288,
      "longitude": 28.1886864,
      "location": "Bon Accord Dam",
      "date": "2021-07-15 12:59",
      "count": 11
    },
    {
      "id": "L4019953",
      "country": "ZA",
      "countryCode": "ZA-GT",
      "latitude": -26.117614,
      "longitude": 28.261094,
      "location": "Bonaero Pan",
      "date": "2023-10-19 16:54",
      "count": 128
    },
    {
      "id": "L1314001",
      "country": "ZA",
      "countryCode": "ZA-NL",
      "latitude": -28.0574527,
      "longitude": 32.2948426,
      "location": "Bonamanzi GR",
      "date": "2023-10-03 06:10",
      "count": 379
    },
    {
      "id": "L8607076",
      "country": "ZA",
      "countryCode": "ZA-FS",
      "latitude": -26.7717333,
      "longitude": 27.8322017,
      "location": "Bongani Mabaso Eco Park",
      "date": "2023-01-08 10:05",
      "count": 142
    },
    {
      "id": "L21115795",
      "country": "ZA",
      "countryCode": "ZA-WC",
      "latitude": -33.8738006,
      "longitude": 21.859231,
      "location": "Bonniedale Holiday Farm",
      "date": "2022-10-04 08:00",
      "count": 5
    },
    {
      "id": "L941408",
      "country": "ZA",
      "countryCode": "ZA-WC",
      "latitude": -34.0708623,
      "longitude": 20.4524231,
      "location": "Bontebok NP",
      "date": "2023-10-22 14:36",
      "count": 223
    },
    {
      "id": "L988704",
      "country": "ZA",
      "countryCode": "ZA-WC",
      "latitude": -34.0788577,
      "longitude": 20.4525695,
      "location": "Bontebok NP--Aloe Hill Trail",
      "date": "2023-09-18 07:20",
      "count": 120
    },
    {
      "id": "L16754074",
      "country": "ZA",
      "countryCode": "ZA-WC",
      "latitude": -34.0632167,
      "longitude": 20.4305967,
      "location": "Bontebok NP--Die Stroom Road",
      "date": "2023-10-13 06:54",
      "count": 77
    },
    {
      "id": "L988710",
      "country": "ZA",
      "countryCode": "ZA-WC",
      "latitude": -34.049093,
      "longitude": 20.4839079,
      "location": "Bontebok NP--Entrance to Reception",
      "date": "2022-05-10 00:00",
      "count": 67
    },
    {
      "id": "L16756534",
      "country": "ZA",
      "countryCode": "ZA-WC",
      "latitude": -34.0725916,
      "longitude": 20.4498153,
      "location": "Bontebok NP--Picnic Area/Trail Heads",
      "date": "2023-09-21 13:30",
      "count": 84
    },
    {
      "id": "L988709",
      "country": "ZA",
      "countryCode": "ZA-WC",
      "latitude": -34.061964,
      "longitude": 20.463609,
      "location": "Bontebok NP--Reception to Rest Camp",
      "date": "2023-11-06 06:36",
      "count": 149
    },
    {
      "id": "L16226029",
      "country": "ZA",
      "countryCode": "ZA-WC",
      "latitude": -34.0708758,
      "longitude": 20.43869,
      "location": "Bontebok NP--River Overlook",
      "date": "2022-04-21 10:48",
      "count": 35
    },
    {
      "id": "L16226032",
      "country": "ZA",
      "countryCode": "ZA-WC",
      "latitude": -34.0628717,
      "longitude": 20.4343658,
      "location": "Bontebok NP--West Gate to Lang Elsie Rest Camp",
      "date": "2023-09-09 14:49",
      "count": 101
    },
    {
      "id": "L5222893",
      "country": "ZA",
      "countryCode": "ZA-NW",
      "latitude": -26.209,
      "longitude": 27.278,
      "location": "Boons Road",
      "date": "2023-09-21 09:37",
      "count": 220
    },
    {
      "id": "L14521832",
      "country": "ZA",
      "countryCode": "ZA-NW",
      "latitude": -26.0448284,
      "longitude": 27.2938898,
      "location": "Boons Road -- northern section (thornveld)",
      "date": "2023-08-15 13:12",
      "count": 150
    },
    {
      "id": "L1367091",
      "country": "ZA",
      "countryCode": "ZA-NW",
      "latitude": -25.1391876,
      "longitude": 27.8018255,
      "location": "Borakalalo NP",
      "date": "2023-10-14 07:24",
      "count": 367
    },
    {
      "id": "L10981666",
      "country": "ZA",
      "countryCode": "ZA-EC",
      "latitude": -33.5239436,
      "longitude": 26.061221,
      "location": "Born Free Julie Ward Centre",
      "date": "2015-12-04 11:00",
      "count": 12
    },
    {
      "id": "L19881173",
      "country": "ZA",
      "countryCode": "ZA-WC",
      "latitude": -33.3141829,
      "longitude": 21.5248887,
      "location": "Bosch Luys Kloof",
      "date": "2022-06-26 08:15",
      "count": 30
    },
    {
      "id": "L4558324",
      "country": "ZA",
      "countryCode": "ZA-NW",
      "latitude": -26.5405522,
      "longitude": 27.0933216,
      "location": "Boskop Dam Nature Reserve",
      "date": "2021-12-24 11:05",
      "count": 96
    },
    {
      "id": "L9969765",
      "country": "ZA",
      "countryCode": "ZA-GT",
      "latitude": -26.1917091,
      "longitude": 27.9554657,
      "location": "Bosmont--Storm drainage",
      "date": "2020-02-23 10:58",
      "count": 35
    },
    {
      "id": "L20900812",
      "country": "ZA",
      "countryCode": "ZA-NL",
      "latitude": -29.7147411,
      "longitude": 29.9569399,
      "location": "Boston--Picklepot Cafe",
      "date": "2023-11-03 13:38",
      "count": 16
    },
    {
      "id": "L5723884",
      "country": "ZA",
      "countryCode": "ZA-WC",
      "latitude": -34.3126478,
      "longitude": 19.1481829,
      "location": "Bot River Bridge (R43)",
      "date": "2023-11-09 07:47",
      "count": 99
    },
    {
      "id": "L3343585",
      "country": "ZA",
      "countryCode": "ZA-WC",
      "latitude": -34.3400792,
      "longitude": 19.0377617,
      "location": "Botriviervlei",
      "date": "2023-10-30 17:35",
      "count": 143
    },
    {
      "id": "L17124995",
      "country": "ZA",
      "countryCode": "ZA-NW",
      "latitude": -25.58546,
      "longitude": 25.67632,
      "location": "Botsalano GR--Southern Region",
      "date": "2021-12-18 06:00",
      "count": 47
    },
    {
      "id": "L4044869",
      "country": "ZA",
      "countryCode": "ZA-NW",
      "latitude": -25.5606066,
      "longitude": 25.7100812,
      "location": "Botsalano Game Reserve",
      "date": "2023-10-24 21:15",
      "count": 236
    },
    {
      "id": "L4531718",
      "country": "ZA",
      "countryCode": "ZA-NW",
      "latitude": -25.4595199,
      "longitude": 25.8310643,
      "location": "Botsalano Game Reserve--access road",
      "date": "2022-12-17 09:04",
      "count": 98
    },
    {
      "id": "L17124993",
      "country": "ZA",
      "countryCode": "ZA-NW",
      "latitude": -25.50415,
      "longitude": 25.74298,
      "location": "Botsalano--Main Pentad",
      "date": "2021-12-18 04:59",
      "count": 100
    },
    {
      "id": "L9890007",
      "country": "ZA",
      "countryCode": "ZA-MP",
      "latitude": -25.69189,
      "longitude": 29.43023,
      "location": "Botshabelo",
      "date": "2023-07-01 10:17",
      "count": 116
    },
    {
      "id": "L19902229",
      "country": "ZA",
      "countryCode": "ZA-WC",
      "latitude": -33.8055039,
      "longitude": 18.6576605,
      "location": "Botterblom NR",
      "date": "2023-10-02 12:09",
      "count": 23
    },
    {
      "id": "L936100",
      "country": "ZA",
      "countryCode": "ZA-WC",
      "latitude": -34.1979652,
      "longitude": 18.4519626,
      "location": "Boulders Beach",
      "date": "2023-11-09 20:33",
      "count": 174
    },
    {
      "id": "L11073727",
      "country": "ZA",
      "countryCode": "ZA-MP",
      "latitude": -25.5159458,
      "longitude": 31.181339,
      "location": "Boulders Road",
      "date": "2022-11-19 12:03",
      "count": 159
    },
    {
      "id": "L8970023",
      "country": "ZA",
      "countryCode": "ZA-WC",
      "latitude": -33.8785859,
      "longitude": 18.7130505,
      "location": "Bracken NR",
      "date": "2023-08-26 08:25",
      "count": 33
    },
    {
      "id": "L8607014",
      "country": "ZA",
      "countryCode": "ZA-GT",
      "latitude": -26.3373032,
      "longitude": 28.0939535,
      "location": "Brackendowns",
      "date": "2023-09-21 08:35",
      "count": 126
    },
    {
      "id": "L25342756",
      "country": "ZA",
      "countryCode": "ZA-GT",
      "latitude": -26.3151875,
      "longitude": 28.1048228,
      "location": "Brackenhurst",
      "date": "2023-10-09 07:14",
      "count": 78
    },
    {
      "id": "L22442874",
      "country": "ZA",
      "countryCode": "ZA-LP",
      "latitude": -23.8814348,
      "longitude": 29.9837534,
      "location": "Bramasole Guest House",
      "date": "2023-10-25 06:00",
      "count": 86
    },
    {
      "id": "L1955909",
      "country": "ZA",
      "countryCode": "ZA-NL",
      "latitude": -29.4178436,
      "longitude": 29.8804951,
      "location": "Bramleigh Manor B&B",
      "date": "2010-03-14 06:15",
      "count": 67
    },
    {
      "id": "L16799900",
      "country": "ZA",
      "countryCode": "ZA-WC",
      "latitude": -33.8044074,
      "longitude": 19.3755162,
      "location": "Brandlvlei NR--Kilpbokkop",
      "date": "2023-10-11 12:41",
      "count": 71
    },
    {
      "id": "L17480922",
      "country": "ZA",
      "countryCode": "ZA-NC",
      "latitude": -30.474591,
      "longitude": 20.518865,
      "location": "Brandvlei--Sak River bridge",
      "date": "2023-09-06 14:53",
      "count": 120
    },
    {
      "id": "L1161977",
      "country": "ZA",
      "countryCode": "ZA-NC",
      "latitude": -30.4692909,
      "longitude": 20.4792595,
      "location": "Brandvlei--vicinity",
      "date": "2023-10-04 13:57",
      "count": 175
    },
    {
      "id": "L9820702",
      "country": "ZA",
      "countryCode": "ZA-WC",
      "latitude": -33.9560332,
      "longitude": 18.4312143,
      "location": "Breakfast Rock and The Saddle",
      "date": "2023-07-02 15:45",
      "count": 16
    },
    {
      "id": "L3160982",
      "country": "ZA",
      "countryCode": "ZA-WC",
      "latitude": -34.5263586,
      "longitude": 20.0505638,
      "location": "Bredasdorp (town)",
      "date": "2023-11-07 06:32",
      "count": 102
    },
    {
      "id": "L13966178",
      "country": "ZA",
      "countryCode": "ZA-WC",
      "latitude": -34.6023817,
      "longitude": 19.9448451,
      "location": "Bredasdorp--Nuwejaars Wetlands-Mierkraal",
      "date": "2023-10-17 14:02",
      "count": 85
    },
    {
      "id": "L20765606",
      "country": "ZA",
      "countryCode": "ZA-WC",
      "latitude": -33.82191,
      "longitude": 19.8643483,
      "location": "Bree River--Reitz Street Bridge (MR 290)",
      "date": "2023-10-22 11:01",
      "count": 56
    },
    {
      "id": "L6279008",
      "country": "ZA",
      "countryCode": "ZA-WC",
      "latitude": -33.421009,
      "longitude": 19.265751,
      "location": "Breede River Bridge on R43",
      "date": "2022-10-19 08:00",
      "count": 123
    },
    {
      "id": "L4439242",
      "country": "ZA",
      "countryCode": "ZA-WC",
      "latitude": -34.4024482,
      "longitude": 20.8479738,
      "location": "Breede River Mouth",
      "date": "2022-04-23 15:19",
      "count": 114
    },
    {
      "id": "L12034468",
      "country": "ZA",
      "countryCode": "ZA-WC",
      "latitude": -33.6672641,
      "longitude": 19.44768,
      "location": "Breede Valley Municipal Works",
      "date": "2022-10-05 13:10",
      "count": 54
    },
    {
      "id": "L10301490",
      "country": "ZA",
      "countryCode": "ZA-NW",
      "latitude": -25.8666766,
      "longitude": 27.4438262,
      "location": "Breedtsnek Pass",
      "date": "2023-06-24 14:25",
      "count": 175
    },
    {
      "id": "L7097794",
      "country": "ZA",
      "countryCode": "ZA-MP",
      "latitude": -25.0835234,
      "longitude": 30.727998,
      "location": "Bridal Veil Falls",
      "date": "2023-09-16 13:33",
      "count": 30
    },
    {
      "id": "L8455022",
      "country": "ZA",
      "countryCode": "ZA-NC",
      "latitude": -31.0335829,
      "longitude": 20.2974774,
      "location": "Bridge at -31.033, 20.298 (Cliff swallow colony)",
      "date": "2022-11-26 09:00",
      "count": 67
    },
    {
      "id": "L7933210",
      "country": "ZA",
      "countryCode": "ZA-NC",
      "latitude": -28.7239747,
      "longitude": 20.509988,
      "location": "Bridge to Perde Eiland",
      "date": "2023-04-11 15:57",
      "count": 24
    },
    {
      "id": "L9902252",
      "country": "ZA",
      "countryCode": "ZA-NW",
      "latitude": -25.61866,
      "longitude": 27.79978,
      "location": "Brits--Town",
      "date": "2023-04-07 13:00",
      "count": 16
    },
    {
      "id": "L22169109",
      "country": "ZA",
      "countryCode": "ZA-NC",
      "latitude": -30.5886578,
      "longitude": 23.5038019,
      "location": "Britstown",
      "date": "2023-01-11 12:25",
      "count": 6
    },
    {
      "id": "L6221269",
      "country": "ZA",
      "countryCode": "ZA-NW",
      "latitude": -27.7446327,
      "longitude": 25.3297713,
      "location": "Britten Salt Works",
      "date": "2022-12-19 12:15",
      "count": 61
    },
    {
      "id": "L1955464",
      "country": "ZA",
      "countryCode": "ZA-GT",
      "latitude": -25.8,
      "longitude": 28.733333,
      "location": "Bronkhorstspruit (town only)",
      "date": "2023-05-24 13:49",
      "count": 79
    },
    {
      "id": "L2503331",
      "country": "ZA",
      "countryCode": "ZA-GT",
      "latitude": -25.9012326,
      "longitude": 28.6949158,
      "location": "Bronkhorstspruit Dam",
      "date": "2023-11-05 05:53",
      "count": 255
    },
    {
      "id": "L10746076",
      "country": "ZA",
      "countryCode": "ZA-GT",
      "latitude": -26.1790697,
      "longitude": 28.1056796,
      "location": "Bruma Lake Park",
      "date": "2023-10-22 06:16",
      "count": 48
    },
    {
      "id": "L9895765",
      "country": "ZA",
      "countryCode": "ZA-MP",
      "latitude": -25.52156,
      "longitude": 29.51518,
      "location": "Buffalo Gorge hiking trail",
      "date": "2017-11-25 05:00",
      "count": 104
    },
    {
      "id": "L20657438",
      "country": "ZA",
      "countryCode": "ZA-WC",
      "latitude": -34.086,
      "longitude": 22.973,
      "location": "Buffels Bay",
      "date": "2023-08-30 07:41",
      "count": 37
    },
    {
      "id": "L3603235",
      "country": "ZA",
      "countryCode": "ZA-WC",
      "latitude": -34.3402824,
      "longitude": 18.8334417,
      "location": "Buffels River mouth",
      "date": "2023-10-03 17:05",
      "count": 61
    },
    {
      "id": "L2499780",
      "country": "ZA",
      "countryCode": "ZA-GT",
      "latitude": -25.590446,
      "longitude": 28.3189774,
      "location": "Buffelsdrift Conservancy",
      "date": "2023-10-06 06:41",
      "count": 222
    },
    {
      "id": "L8683977",
      "country": "ZA",
      "countryCode": "ZA-WC",
      "latitude": -33.2666222,
      "longitude": 18.2189828,
      "location": "Buffelsfontein Game and Nature Reserve",
      "date": "2023-10-19 11:33",
      "count": 57
    },
    {
      "id": "L11176279",
      "country": "ZA",
      "countryCode": "ZA-MP",
      "latitude": -24.6963932,
      "longitude": 31.5647361,
      "location": "Buffelshoek Private Game Reserve",
      "date": "2023-06-29 14:52",
      "count": 168
    },
    {
      "id": "L2520108",
      "country": "ZA",
      "countryCode": "ZA-GT",
      "latitude": -26.1344807,
      "longitude": 28.3225822,
      "location": "Bullfrog Dam",
      "date": "2023-10-31 14:44",
      "count": 164
    },
    {
      "id": "L1140779",
      "country": "ZA",
      "countryCode": "ZA-EC",
      "latitude": -32.159919,
      "longitude": 28.9953661,
      "location": "Bulungula",
      "date": "2023-10-26 09:00",
      "count": 43
    },
    {
      "id": "L9935656",
      "country": "ZA",
      "countryCode": "ZA-EC",
      "latitude": -30.99544,
      "longitude": 26.32505,
      "location": "Burgersdorp",
      "date": "2018-03-31 15:00",
      "count": 54
    },
    {
      "id": "L11115098",
      "country": "ZA",
      "countryCode": "ZA-MP",
      "latitude": -24.904825,
      "longitude": 31.113192,
      "location": "Bushbuckridge Nature Reserve",
      "date": "2022-11-09 10:17",
      "count": 118
    },
    {
      "id": "L8163641",
      "country": "ZA",
      "countryCode": "ZA-NL",
      "latitude": -29.8482489,
      "longitude": 29.2347009,
      "location": "Bushmans Nek",
      "date": "2023-06-04 13:29",
      "count": 126
    },
    {
      "id": "L5215338",
      "country": "ZA",
      "countryCode": "ZA-WC",
      "latitude": -32.0880286,
      "longitude": 19.1213393,
      "location": "Bushmanskloof Nature Reserve",
      "date": "2023-10-06 15:29",
      "count": 132
    },
    {
      "id": "L9885463",
      "country": "ZA",
      "countryCode": "ZA-EC",
      "latitude": -32.29453,
      "longitude": 28.204,
      "location": "Butterworth area",
      "date": "2009-09-09 14:00",
      "count": 5
    },
    {
      "id": "L10019750",
      "country": "ZA",
      "countryCode": "ZA-LP",
      "latitude": -23.0261074,
      "longitude": 29.7659003,
      "location": "Buzzard Mountain Retreat",
      "date": "2019-10-05 05:30",
      "count": 96
    },
    {
      "id": "L13473635",
      "country": "ZA",
      "countryCode": "ZA-LP",
      "latitude": -23.6855658,
      "longitude": 29.5060512,
      "location": "Bylsteel Road",
      "date": "2023-06-28 15:07",
      "count": 15
    },
    {
      "id": "L3193002",
      "country": "ZA",
      "countryCode": "ZA-WC",
      "latitude": -34.2242805,
      "longitude": 19.4284201,
      "location": "Caledon Botanical Gardens",
      "date": "2023-08-12 14:52",
      "count": 101
    },
    {
      "id": "L6331060",
      "country": "ZA",
      "countryCode": "ZA-FS",
      "latitude": -29.8290407,
      "longitude": 26.9273508,
      "location": "Caledon Nature Reserve",
      "date": "2022-08-02 07:40",
      "count": 13
    },
    {
      "id": "L7200052",
      "country": "ZA",
      "countryCode": "ZA-WC",
      "latitude": -34.2042393,
      "longitude": 19.3873447,
      "location": "Caledon Sewage Works",
      "date": "2023-09-22 11:12",
      "count": 78
    },
    {
      "id": "L11224110",
      "country": "ZA",
      "countryCode": "ZA-NL",
      "latitude": -27.9738984,
      "longitude": 30.8350785,
      "location": "Calverts Area",
      "date": "2020-08-15 06:57",
      "count": 78
    },
    {
      "id": "L971987",
      "country": "ZA",
      "countryCode": "ZA-NC",
      "latitude": -31.4895777,
      "longitude": 19.772644,
      "location": "Calvinia",
      "date": "2023-10-03 17:29",
      "count": 156
    },
    {
      "id": "L1122448",
      "country": "ZA",
      "countryCode": "ZA-NC",
      "latitude": -31.5004,
      "longitude": 19.7254,
      "location": "Calvinia airstrip",
      "date": "2007-02-04 12:30",
      "count": 23
    },
    {
      "id": "L3694010",
      "country": "ZA",
      "countryCode": "ZA-EC",
      "latitude": -32.2135273,
      "longitude": 24.5416975,
      "location": "Camdeboo NP",
      "date": "2023-09-14 16:43",
      "count": 212
    },
    {
      "id": "L3922483",
      "country": "ZA",
      "countryCode": "ZA-EC",
      "latitude": -32.2651807,
      "longitude": 24.49301,
      "location": "Camdeboo NP--Valley of Desolation",
      "date": "2023-10-03 08:50",
      "count": 115
    },
    {
      "id": "L10982959",
      "country": "ZA",
      "countryCode": "ZA-WC",
      "latitude": -33.9513069,
      "longitude": 18.3771294,
      "location": "Camps Bay Beach",
      "date": "2023-11-02 15:45",
      "count": 88
    },
    {
      "id": "L10143584",
      "country": "ZA",
      "countryCode": "ZA-GT",
      "latitude": -25.9019199,
      "longitude": 28.1702587,
      "location": "Candlewoods Wetland",
      "date": "2023-09-17 17:28",
      "count": 118
    },
    {
      "id": "L957958",
      "country": "ZA",
      "countryCode": "ZA-WC",
      "latitude": -33.3922511,
      "longitude": 22.2150207,
      "location": "Cango Caves",
      "date": "2023-11-01 11:20",
      "count": 62
    },
    {
      "id": "L16818310",
      "country": "ZA",
      "countryCode": "ZA-GT",
      "latitude": -26.0953048,
      "longitude": 27.8963335,
      "location": "Canterbury Preparatory School",
      "date": "2021-11-05 08:41",
      "count": 25
    },
    {
      "id": "L988334",
      "country": "ZA",
      "countryCode": "ZA-WC",
      "latitude": -34.8323801,
      "longitude": 20.0066035,
      "location": "Cape Aguhlas",
      "date": "2023-11-07 12:23",
      "count": 193
    },
    {
      "id": "L8068346",
      "country": "ZA",
      "countryCode": "ZA-WC",
      "latitude": -32.828495,
      "longitude": 17.8528262,
      "location": "Cape Columbine Nature Reserve",
      "date": "2022-04-17 15:55",
      "count": 80
    },
    {
      "id": "L12515185",
      "country": "ZA",
      "countryCode": "ZA-WC",
      "latitude": -33.936083,
      "longitude": 18.620661,
      "location": "Cape Flats Nature Reserve, UWC",
      "date": "2023-10-14 06:15",
      "count": 62
    },
    {
      "id": "L9637896",
      "country": "ZA",
      "countryCode": "ZA-WC",
      "latitude": -34.3804073,
      "longitude": 18.8308922,
      "location": "Cape Hangklip",
      "date": "2023-10-03 16:09",
      "count": 57
    },
    {
      "id": "L988103",
      "country": "ZA",
      "countryCode": "ZA-EC",
      "latitude": -34.0292041,
      "longitude": 25.7013093,
      "location": "Cape Recife Lighthouse",
      "date": "2023-11-06 11:00",
      "count": 133
    },
    {
      "id": "L7493082",
      "country": "ZA",
      "countryCode": "ZA-EC",
      "latitude": -34.0157521,
      "longitude": 25.6867433,
      "location": "Cape Recife WTP",
      "date": "2023-09-04 13:11",
      "count": 56
    },
    {
      "id": "L933368",
      "country": "ZA",
      "countryCode": "ZA-EC",
      "latitude": -34.0222177,
      "longitude": 25.6925583,
      "location": "Cape Recife--Pt. Elizabeth",
      "date": "2023-09-22 15:39",
      "count": 208
    },
    {
      "id": "L988101",
      "country": "ZA",
      "countryCode": "ZA-EC",
      "latitude": -34.0179391,
      "longitude": 25.6909256,
      "location": "Cape Recife--bird hide",
      "date": "2023-09-27 15:17",
      "count": 176
    },
    {
      "id": "L3264736",
      "country": "ZA",
      "countryCode": "ZA-EC",
      "latitude": -34.206688,
      "longitude": 24.8306108,
      "location": "Cape St Frances",
      "date": "2023-10-04 07:31",
      "count": 185
    },
    {
      "id": "L2947043",
      "country": "ZA",
      "countryCode": "ZA-WC",
      "latitude": -34.1867653,
      "longitude": 22.1599174,
      "location": "Cape St. Blaize",
      "date": "2023-10-09 10:34",
      "count": 44
    },
    {
      "id": "L1122438",
      "country": "ZA",
      "countryCode": "ZA-WC",
      "latitude": -33.9649,
      "longitude": 18.6016,
      "location": "Cape Town Intl Airport",
      "date": "2023-10-31 16:44",
      "count": 89
    },
    {
      "id": "L1357648",
      "country": "ZA",
      "countryCode": "ZA-WC",
      "latitude": -33.9266823,
      "longitude": 18.4172372,
      "location": "Cape Town--Company's Garden",
      "date": "2023-11-03 18:46",
      "count": 79
    },
    {
      "id": "L16553194",
      "country": "ZA",
      "countryCode": "ZA-WC",
      "latitude": -33.9726204,
      "longitude": 18.4774939,
      "location": "Cape Town--Keurboom Park",
      "date": "2023-11-03 15:44",
      "count": 60
    },
    {
      "id": "L6514442",
      "country": "ZA",
      "countryCode": "ZA-WC",
      "latitude": -33.900958,
      "longitude": 18.3987888,
      "location": "Cape Town--Mouille Point",
      "date": "2023-11-01 18:12",
      "count": 73
    },
    {
      "id": "L20612264",
      "country": "ZA",
      "countryCode": "ZA-WC",
      "latitude": -33.9695947,
      "longitude": 18.5921288,
      "location": "Cape Town--Road Lodge at Airport",
      "date": "2023-10-22 18:16",
      "count": 42
    },
    {
      "id": "L12727891",
      "country": "ZA",
      "countryCode": "ZA-WC",
      "latitude": -33.957386,
      "longitude": 18.495934,
      "location": "Cape Town--Rondebosch Golf Club",
      "date": "2023-08-26 17:47",
      "count": 24
    },
    {
      "id": "L971998",
      "country": "ZA",
      "countryCode": "ZA-WC",
      "latitude": -33.9154433,
      "longitude": 18.3855343,
      "location": "Cape Town--Sea Point",
      "date": "2023-11-05 13:00",
      "count": 90
    },
    {
      "id": "L1163211",
      "country": "ZA",
      "countryCode": "ZA-WC",
      "latitude": -33.9059516,
      "longitude": 18.4225774,
      "location": "Cape Town--V&A Waterfront",
      "date": "2023-11-09 08:48",
      "count": 117
    },
    {
      "id": "L21310282",
      "country": "ZA",
      "countryCode": "ZA-NL",
      "latitude": -28.269,
      "longitude": 32.745,
      "location": "Cape Vidal--Offshore pelagic",
      "date": "2022-10-16 07:04",
      "count": 5
    },
    {
      "id": "L7354563",
      "country": "ZA",
      "countryCode": "ZA-EC",
      "latitude": -33.0833292,
      "longitude": 26.2254424,
      "location": "Carlisle Bridge",
      "date": "2023-05-12 06:30",
      "count": 136
    },
    {
      "id": "L20824358",
      "country": "ZA",
      "countryCode": "ZA-WC",
      "latitude": -33.9985077,
      "longitude": 22.537063,
      "location": "Carmel",
      "date": "2023-04-07 17:28",
      "count": 28
    },
    {
      "id": "L14025584",
      "country": "ZA",
      "countryCode": "ZA-NC",
      "latitude": -30.9686484,
      "longitude": 22.1177702,
      "location": "Carnarvon--town and surrounds",
      "date": "2022-08-12 17:20",
      "count": 108
    },
    {
      "id": "L9906219",
      "country": "ZA",
      "countryCode": "ZA-MP",
      "latitude": -26.06797,
      "longitude": 30.11344,
      "location": "Carolina",
      "date": "2023-08-05 09:48",
      "count": 25
    },
    {
      "id": "L9907543",
      "country": "ZA",
      "countryCode": "ZA-WC",
      "latitude": -33.9260248,
      "longitude": 18.4271006,
      "location": "Castle of Good Hope",
      "date": "2023-06-30 13:50",
      "count": 38
    },
    {
      "id": "L6528565",
      "country": "ZA",
      "countryCode": "ZA-NL",
      "latitude": -28.946944,
      "longitude": 29.204722,
      "location": "Cathedral Peak Hotel",
      "date": "2023-11-04 06:39",
      "count": 111
    },
    {
      "id": "L18308205",
      "country": "ZA",
      "countryCode": "ZA-WC",
      "latitude": -34.0070639,
      "longitude": 18.417592,
      "location": "Cecilia Forest",
      "date": "2023-08-27 11:01",
      "count": 68
    },
    {
      "id": "L22648703",
      "country": "ZA",
      "countryCode": "ZA-GT",
      "latitude": -26.0054123,
      "longitude": 27.9817723,
      "location": "Cedar Lakes Estate",
      "date": "2023-03-31 09:08",
      "count": 47
    },
    {
      "id": "L8787571",
      "country": "ZA",
      "countryCode": "ZA-NL",
      "latitude": -29.557362,
      "longitude": 30.2546734,
      "location": "Cedara Agricultural College Conservancy",
      "date": "2023-11-09 16:30",
      "count": 197
    },
    {
      "id": "L9465991",
      "country": "ZA",
      "countryCode": "ZA-WC",
      "latitude": -32.3723924,
      "longitude": 19.0613249,
      "location": "Cederberg Wilderness Area",
      "date": "2023-04-06 13:31",
      "count": 96
    },
    {
      "id": "L17176783",
      "country": "ZA",
      "countryCode": "ZA-WC",
      "latitude": -32.4424358,
      "longitude": 19.1898483,
      "location": "Cederberg--Driehoek Tourist Farm",
      "date": "2023-10-26 15:00",
      "count": 67
    },
    {
      "id": "L12361184",
      "country": "ZA",
      "countryCode": "ZA-GT",
      "latitude": -26.0561688,
      "longitude": 27.940633,
      "location": "Celebration Retirement Village, Olievenpoort",
      "date": "2023-07-02 16:03",
      "count": 95
    },
    {
      "id": "L2520112",
      "country": "ZA",
      "countryCode": "ZA-GT",
      "latitude": -25.8547051,
      "longitude": 28.1880856,
      "location": "Centurion Lake",
      "date": "2023-09-29 07:31",
      "count": 79
    },
    {
      "id": "L24010911",
      "country": "ZA",
      "countryCode": "ZA-GT",
      "latitude": -25.8805485,
      "longitude": 28.1993616,
      "location": "Centurion--Luton Valley Bird Sanctuary",
      "date": "2023-07-22 13:52",
      "count": 12
    },
    {
      "id": "L13850033",
      "country": "ZA",
      "countryCode": "ZA-WC",
      "latitude": -33.3588906,
      "longitude": 19.2882286,
      "location": "Ceres--Road to dam",
      "date": "2022-10-25 14:00",
      "count": 91
    },
    {
      "id": "L9882305",
      "country": "ZA",
      "countryCode": "ZA-GT",
      "latitude": -25.73059,
      "longitude": 28.21742,
      "location": "Chamberlain Bird Sanctuary",
      "date": "2021-09-18 18:45",
      "count": 17
    },
    {
      "id": "L22497032",
      "country": "ZA",
      "countryCode": "ZA-GT",
      "latitude": -25.3487928,
      "longitude": 28.3541511,
      "location": "Chameleon Bush Lodge",
      "date": "2023-10-13 06:10",
      "count": 82
    },
    {
      "id": "L3055557",
      "country": "ZA",
      "countryCode": "ZA-NL",
      "latitude": -29.0482164,
      "longitude": 29.4145203,
      "location": "Champagne Castle",
      "date": "2023-11-03 06:46",
      "count": 188
    },
    {
      "id": "L18417701",
      "country": "ZA",
      "countryCode": "ZA-NL",
      "latitude": -29.0307,
      "longitude": 29.434617,
      "location": "Champagne Castle--The Bunker",
      "date": "2023-11-01 06:50",
      "count": 57
    },
    {
      "id": "L18566663",
      "country": "ZA",
      "countryCode": "ZA-NL",
      "latitude": -28.9968052,
      "longitude": 29.4709969,
      "location": "Champagne Sports Resort",
      "date": "2023-10-25 16:58",
      "count": 154
    },
    {
      "id": "L8325345",
      "country": "ZA",
      "countryCode": "ZA-NW",
      "latitude": -25.449,
      "longitude": 27.136,
      "location": "Chaneng sandgrouse fields",
      "date": "2022-04-25 10:35",
      "count": 74
    },
    {
      "id": "L6014021",
      "country": "ZA",
      "countryCode": "ZA-WC",
      "latitude": -34.0782301,
      "longitude": 18.3633499,
      "location": "Chapman's Peak Drive",
      "date": "2023-11-03 09:45",
      "count": 100
    },
    {
      "id": "L972010",
      "country": "ZA",
      "countryCode": "ZA-NL",
      "latitude": -28.3753917,
      "longitude": 32.3034096,
      "location": "Charters Creek",
      "date": "2023-09-04 15:03",
      "count": 136
    },
    {
      "id": "L9530824",
      "country": "ZA",
      "countryCode": "ZA-NL",
      "latitude": -27.9907159,
      "longitude": 29.8959563,
      "location": "Chelmsford Dam NR",
      "date": "2020-08-22 12:07",
      "count": 140
    },
    {
      "id": "L17471579",
      "country": "ZA",
      "countryCode": "ZA-EC",
      "latitude": -32.931072,
      "longitude": 27.9185683,
      "location": "Chicken Farm Trails",
      "date": "2023-09-30 07:17",
      "count": 109
    },
    {
      "id": "L9894664",
      "country": "ZA",
      "countryCode": "ZA-LP",
      "latitude": -22.91368,
      "longitude": 29.22227,
      "location": "Chinaka Game Lodge",
      "date": "2020-02-18 09:07",
      "count": 63
    },
    {
      "id": "L11115142",
      "country": "ZA",
      "countryCode": "ZA-MP",
      "latitude": -26.2883635,
      "longitude": 30.2154783,
      "location": "Chrissiesmeer",
      "date": "2023-10-23 13:34",
      "count": 155
    },
    {
      "id": "L10346726",
      "country": "ZA",
      "countryCode": "ZA-EC",
      "latitude": -32.8339494,
      "longitude": 28.1130887,
      "location": "Cintsa River",
      "date": "2023-04-23 11:42",
      "count": 105
    },
    {
      "id": "L972490",
      "country": "ZA",
      "countryCode": "ZA-WC",
      "latitude": -32.6093028,
      "longitude": 18.9933014,
      "location": "Citrusdale",
      "date": "2023-09-27 12:29",
      "count": 110
    },
    {
      "id": "L20938145",
      "country": "ZA",
      "countryCode": "ZA-NL",
      "latitude": -30.2482863,
      "longitude": 30.7815345,
      "location": "Clanstal Beach",
      "date": "2023-04-27 16:14",
      "count": 15
    },
    {
      "id": "L972557",
      "country": "ZA",
      "countryCode": "ZA-WC",
      "latitude": -32.177574,
      "longitude": 18.8942528,
      "location": "Clanwilliam",
      "date": "2023-09-08 11:20",
      "count": 135
    },
    {
      "id": "L3165177",
      "country": "ZA",
      "countryCode": "ZA-WC",
      "latitude": -32.2052217,
      "longitude": 18.8837814,
      "location": "Clanwilliam Dam",
      "date": "2023-08-31 07:33",
      "count": 126
    },
    {
      "id": "L9890011",
      "country": "ZA",
      "countryCode": "ZA-FS",
      "latitude": -28.51548,
      "longitude": 28.42645,
      "location": "Clarens",
      "date": "2023-10-14 13:12",
      "count": 120
    },
    {
      "id": "L24847968",
      "country": "ZA",
      "countryCode": "ZA-FS",
      "latitude": -28.5080451,
      "longitude": 28.4292694,
      "location": "Clarens -- Golf and Trout Estate (restricted access)",
      "date": "2023-06-01 08:43",
      "count": 31
    },
    {
      "id": "L22760915",
      "country": "ZA",
      "countryCode": "ZA-WC",
      "latitude": -33.941785,
      "longitude": 18.371956,
      "location": "Clifton Rocks lookout area",
      "date": "2023-11-09 05:30",
      "count": 49
    },
    {
      "id": "L2356748",
      "country": "ZA",
      "countryCode": "ZA-EC",
      "latitude": -34.041259,
      "longitude": 25.558396,
      "location": "Coastal Fynbos Trail",
      "date": "2023-02-02 18:31",
      "count": 40
    },
    {
      "id": "L2501278",
      "country": "ZA",
      "countryCode": "ZA-EC",
      "latitude": -33.7783626,
      "longitude": 25.6730747,
      "location": "Coega Salt Works",
      "date": "2023-09-29 13:13",
      "count": 98
    },
    {
      "id": "L4060629",
      "country": "ZA",
      "countryCode": "ZA-EC",
      "latitude": -31.984756,
      "longitude": 29.1513205,
      "location": "Coffee Bay",
      "date": "2020-12-13 09:08",
      "count": 113
    },
    {
      "id": "L16338910",
      "country": "ZA",
      "countryCode": "ZA-EC",
      "latitude": -33.6974304,
      "longitude": 25.808743,
      "location": "Colchester (town only)",
      "date": "2023-07-29 16:00",
      "count": 67
    },
    {
      "id": "L17555655",
      "country": "ZA",
      "countryCode": "ZA-NL",
      "latitude": -29.9560666,
      "longitude": 29.4611992,
      "location": "Coleford NR",
      "date": "2022-01-23 09:09",
      "count": 88
    },
    {
      "id": "L9890712",
      "country": "ZA",
      "countryCode": "ZA-NW",
      "latitude": -26.33253,
      "longitude": 26.3148,
      "location": "Coligny--Town",
      "date": "2011-05-20 14:00",
      "count": 10
    },
    {
      "id": "L20148860",
      "country": "ZA",
      "countryCode": "ZA-EC",
      "latitude": -31.9207629,
      "longitude": 25.4111186,
      "location": "Collett Farm - Retreat",
      "date": "2023-08-26 06:32",
      "count": 140
    },
    {
      "id": "L18402633",
      "country": "ZA",
      "countryCode": "ZA-LP",
      "latitude": -24.7809486,
      "longitude": 28.5112488,
      "location": "Combretum Park Nature Reserve",
      "date": "2022-10-16 06:14",
      "count": 147
    },
    {
      "id": "L3050599",
      "country": "ZA",
      "countryCode": "ZA-GT",
      "latitude": -26.1874265,
      "longitude": 27.6870918,
      "location": "Con Joubert Volpark",
      "date": "2014-08-23 13:15",
      "count": 28
    },
    {
      "id": "L17288980",
      "country": "ZA",
      "countryCode": "ZA-WC",
      "latitude": -34.0126917,
      "longitude": 18.4516783,
      "location": "Constantia Greenbelt--Alphen Trail",
      "date": "2023-10-19 06:43",
      "count": 73
    },
    {
      "id": "L2583640",
      "country": "ZA",
      "countryCode": "ZA-WC",
      "latitude": -34.0056942,
      "longitude": 18.431325,
      "location": "Constantia Greenbelt--Brommersvlei Rd",
      "date": "2023-11-08 06:52",
      "count": 105
    },
    {
      "id": "L12500571",
      "country": "ZA",
      "countryCode": "ZA-GT",
      "latitude": -26.149185,
      "longitude": 27.913435,
      "location": "Constantia Kloof Park",
      "date": "2023-07-07 09:06",
      "count": 66
    },
    {
      "id": "L10413298",
      "country": "ZA",
      "countryCode": "ZA-WC",
      "latitude": -33.9981993,
      "longitude": 18.4113048,
      "location": "Constantia Neck Jeep Track",
      "date": "2023-08-10 11:14",
      "count": 56
    },
    {
      "id": "L23957193",
      "country": "ZA",
      "countryCode": "ZA-WC",
      "latitude": -33.9987433,
      "longitude": 18.4266967,
      "location": "Constantia--Cecilia Forest",
      "date": "2023-11-03 15:47",
      "count": 50
    },
    {
      "id": "L11090280",
      "country": "ZA",
      "countryCode": "ZA-MP",
      "latitude": -25.5665321,
      "longitude": 31.9616777,
      "location": "Coopersdal",
      "date": "2022-12-08 05:58",
      "count": 206
    },
    {
      "id": "L2367026",
      "country": "ZA",
      "countryCode": "ZA-GT",
      "latitude": -25.8768321,
      "longitude": 28.0467224,
      "location": "Copperleaf Golf Course",
      "date": "2021-10-07 17:08",
      "count": 51
    },
    {
      "id": "L11255548",
      "country": "ZA",
      "countryCode": "ZA-NC",
      "latitude": -29.9207797,
      "longitude": 22.2978997,
      "location": "Copperton",
      "date": "2023-09-05 16:50",
      "count": 78
    },
    {
      "id": "L2382649",
      "country": "ZA",
      "countryCode": "ZA-GT",
      "latitude": -26.0492262,
      "longitude": 28.0771065,
      "location": "Country Club Johannesburg",
      "date": "2023-11-07 17:13",
      "count": 100
    },
    {
      "id": "L2345674",
      "country": "ZA",
      "countryCode": "ZA-GT",
      "latitude": -25.9302596,
      "longitude": 27.7638245,
      "location": "Cradle of Humankind WHS",
      "date": "2023-05-24 12:00",
      "count": 106
    },
    {
      "id": "L20174810",
      "country": "ZA",
      "countryCode": "ZA-EC",
      "latitude": -32.1267411,
      "longitude": 25.61828,
      "location": "Cradock--North Loop",
      "date": "2023-06-17 09:25",
      "count": 72
    },
    {
      "id": "L1128363",
      "country": "ZA",
      "countryCode": "ZA-EC",
      "latitude": -33.3584514,
      "longitude": 26.4770776,
      "location": "Craig Doone Conservation Academy",
      "date": "2011-01-25 05:15",
      "count": 26
    },
    {
      "id": "L9530843",
      "country": "ZA",
      "countryCode": "ZA-NL",
      "latitude": -29.1679693,
      "longitude": 30.2948112,
      "location": "Craigie Burn Dam",
      "date": "2023-03-31 09:21",
      "count": 65
    },
    {
      "id": "L4559959",
      "country": "ZA",
      "countryCode": "ZA-NL",
      "latitude": -30.0362296,
      "longitude": 29.8206282,
      "location": "Creighton--Smithfield Guesthouse",
      "date": "2023-10-13 08:25",
      "count": 201
    },
    {
      "id": "L11902237",
      "country": "ZA",
      "countryCode": "ZA-GT",
      "latitude": -25.887928,
      "longitude": 27.9675934,
      "location": "Crocodile River Reserve",
      "date": "2023-04-28 14:27",
      "count": 133
    },
    {
      "id": "L17105106",
      "country": "ZA",
      "countryCode": "ZA-EC",
      "latitude": -32.9068589,
      "longitude": 28.0212548,
      "location": "Crossways Village--Dam",
      "date": "2023-10-02 07:45",
      "count": 54
    },
    {
      "id": "L2519715",
      "country": "ZA",
      "countryCode": "ZA-MP",
      "latitude": -24.8418142,
      "longitude": 30.6554604,
      "location": "Crystal Springs Nature Reserve",
      "date": "2023-08-22 13:15",
      "count": 85
    },
    {
      "id": "L7209565",
      "country": "ZA",
      "countryCode": "ZA-LP",
      "latitude": -23.0528923,
      "longitude": 29.9442619,
      "location": "Cuckoos Nest Accommodation",
      "date": "2019-07-08 06:30",
      "count": 89
    },
    {
      "id": "L2650998",
      "country": "ZA",
      "countryCode": "ZA-GT",
      "latitude": -25.6756839,
      "longitude": 28.5135984,
      "location": "Cullinan Hole",
      "date": "2023-10-22 17:12",
      "count": 72
    },
    {
      "id": "L10088406",
      "country": "ZA",
      "countryCode": "ZA-GT",
      "latitude": -26.0569147,
      "longitude": 28.0028355,
      "location": "Cumberland Bird Sanctuary",
      "date": "2020-08-03 08:38",
      "count": 54
    },
    {
      "id": "L1105057",
      "country": "ZA",
      "countryCode": "ZA-EC",
      "latitude": -32.2244194,
      "longitude": 28.9136124,
      "location": "Cwebe Reserve--Haven Hotel",
      "date": "2018-01-09 06:00",
      "count": 127
    },
    {
      "id": "L9882307",
      "country": "ZA",
      "countryCode": "ZA-MP",
      "latitude": -25.64804,
      "longitude": 29.31467,
      "location": "Cycad Hiking Trail",
      "date": "2021-05-09 06:31",
      "count": 122
    },
    {
      "id": "L9112112",
      "country": "ZA",
      "countryCode": "ZA-LP",
      "latitude": -23.749189,
      "longitude": 27.805178,
      "location": "D'Nyala Nature Reserve",
      "date": "2018-11-13 15:29",
      "count": 3
    },
    {
      "id": "L21603626",
      "country": "ZA",
      "countryCode": "ZA-NL",
      "latitude": -28.009065,
      "longitude": 32.3499989,
      "location": "D940 Hluhluwe to False Bay",
      "date": "2023-05-30 08:34",
      "count": 56
    },
    {
      "id": "L8019237",
      "country": "ZA",
      "countryCode": "ZA-MP",
      "latitude": -27.1155875,
      "longitude": 29.9681411,
      "location": "Daggakraal",
      "date": "2023-11-01 15:39",
      "count": 176
    },
    {
      "id": "L5959504",
      "country": "ZA",
      "countryCode": "ZA-GT",
      "latitude": -25.9868725,
      "longitude": 27.9975007,
      "location": "Dainfern",
      "date": "2023-09-09 07:03",
      "count": 108
    },
    {
      "id": "L20191347",
      "country": "ZA",
      "countryCode": "ZA-EC",
      "latitude": -32.8721564,
      "longitude": 27.4013099,
      "location": "Dale College Campus",
      "date": "2023-09-08 17:17",
      "count": 94
    },
    {
      "id": "L4822993",
      "country": "ZA",
      "countryCode": "ZA-GT",
      "latitude": -25.813,
      "longitude": 27.602,
      "location": "Damhoek Private Nature Reserve",
      "date": "2023-07-26 10:16",
      "count": 156
    },
    {
      "id": "L3082234",
      "country": "ZA",
      "countryCode": "ZA-WC",
      "latitude": -34.165913,
      "longitude": 18.8672161,
      "location": "Danie Miller Hiking Trail",
      "date": "2023-08-19 14:37",
      "count": 57
    },
    {
      "id": "L3177816",
      "country": "ZA",
      "countryCode": "ZA-WC",
      "latitude": -33.3755475,
      "longitude": 18.3819809,
      "location": "Darling (general area)",
      "date": "2023-10-20 10:02",
      "count": 154
    },
    {
      "id": "L3890496",
      "country": "ZA",
      "countryCode": "ZA-WC",
      "latitude": -33.4755826,
      "longitude": 18.366394,
      "location": "Darling Hills/Groote Post Road",
      "date": "2023-10-30 10:48",
      "count": 183
    },
    {
      "id": "L3890460",
      "country": "ZA",
      "countryCode": "ZA-WC",
      "latitude": -33.3860617,
      "longitude": 18.382659,
      "location": "Darling Renosterveld Local Nature Reserve",
      "date": "2022-12-30 12:45",
      "count": 69
    },
    {
      "id": "L11889168",
      "country": "ZA",
      "countryCode": "ZA-GT",
      "latitude": -26.131084,
      "longitude": 27.980086,
      "location": "Darrenwood Dam",
      "date": "2023-09-08 12:36",
      "count": 108
    },
    {
      "id": "L4379749",
      "country": "ZA",
      "countryCode": "ZA-WC",
      "latitude": -33.4242781,
      "longitude": 18.0868006,
      "location": "Dassen Island",
      "date": "2018-03-11 00:00",
      "count": 32
    },
    {
      "id": "L1662613",
      "country": "ZA",
      "countryCode": "ZA-WC",
      "latitude": -34.0099691,
      "longitude": 18.4148334,
      "location": "De Hel Nature Area",
      "date": "2023-09-24 09:42",
      "count": 89
    },
    {
      "id": "L20247268",
      "country": "ZA",
      "countryCode": "ZA-NC",
      "latitude": -28.1831749,
      "longitude": 17.178154,
      "location": "De Hoop Camp",
      "date": "2021-07-01 00:00",
      "count": 20
    },
    {
      "id": "L20255563",
      "country": "ZA",
      "countryCode": "ZA-NC",
      "latitude": -28.1831749,
      "longitude": 17.178154,
      "location": "De Hoop Camping Site",
      "date": "2021-07-01 00:00",
      "count": 18
    },
    {
      "id": "L4150348",
      "country": "ZA",
      "countryCode": "ZA-WC",
      "latitude": -34.4777077,
      "longitude": 20.5107863,
      "location": "De Hoop NR--Koppie Alleen",
      "date": "2023-11-07 12:56",
      "count": 145
    },
    {
      "id": "L941566",
      "country": "ZA",
      "countryCode": "ZA-WC",
      "latitude": -34.4644476,
      "longitude": 20.4273605,
      "location": "De Hoop Nature Reserve",
      "date": "2023-11-08 09:40",
      "count": 290
    },
    {
      "id": "L4150023",
      "country": "ZA",
      "countryCode": "ZA-WC",
      "latitude": -34.451992,
      "longitude": 20.402079,
      "location": "De Hoop Nature Reserve--Campground",
      "date": "2023-11-07 09:40",
      "count": 193
    },
    {
      "id": "L4150022",
      "country": "ZA",
      "countryCode": "ZA-WC",
      "latitude": -34.4552441,
      "longitude": 20.3963649,
      "location": "De Hoop Nature Reserve--Lakeside Walking Trail",
      "date": "2023-10-29 12:02",
      "count": 193
    },
    {
      "id": "L972553",
      "country": "ZA",
      "countryCode": "ZA-WC",
      "latitude": -34.3776016,
      "longitude": 20.5344772,
      "location": "De Hoop Nature Reserve--Potberg",
      "date": "2023-11-08 07:57",
      "count": 215
    },
    {
      "id": "L4150362",
      "country": "ZA",
      "countryCode": "ZA-WC",
      "latitude": -34.4923266,
      "longitude": 20.4290671,
      "location": "De Hoop Reserve--De Hoopvlei (south end)",
      "date": "2023-09-30 16:20",
      "count": 166
    },
    {
      "id": "L1320679",
      "country": "ZA",
      "countryCode": "ZA-WC",
      "latitude": -34.7130078,
      "longitude": 20.1103342,
      "location": "De Mond Nature Reserve",
      "date": "2023-08-24 09:30",
      "count": 213
    },
    {
      "id": "L2151387",
      "country": "ZA",
      "countryCode": "ZA-WC",
      "latitude": -32.119365,
      "longitude": 19.0591335,
      "location": "De Pakhuys",
      "date": "2023-06-24 21:11",
      "count": 86
    },
    {
      "id": "L2499791",
      "country": "ZA",
      "countryCode": "ZA-GT",
      "latitude": -25.5898267,
      "longitude": 28.5991287,
      "location": "De Tweedespruit Conservancy",
      "date": "2023-11-03 06:37",
      "count": 262
    },
    {
      "id": "L20140126",
      "country": "ZA",
      "countryCode": "ZA-WC",
      "latitude": -33.936648,
      "longitude": 18.412709,
      "location": "De Waal Park",
      "date": "2023-10-14 16:27",
      "count": 43
    },
    {
      "id": "L2503240",
      "country": "ZA",
      "countryCode": "ZA-GT",
      "latitude": -25.3859065,
      "longitude": 28.4679794,
      "location": "De Wagendrift Road",
      "date": "2023-11-07 06:26",
      "count": 207
    },
    {
      "id": "L4758967",
      "country": "ZA",
      "countryCode": "ZA-GT",
      "latitude": -25.6167552,
      "longitude": 29.0302752,
      "location": "Deales Rock",
      "date": "2023-02-06 09:00",
      "count": 173
    },
    {
      "id": "L2517969",
      "country": "ZA",
      "countryCode": "ZA-LP",
      "latitude": -23.8139795,
      "longitude": 30.0291806,
      "location": "Debegeni Falls",
      "date": "2023-08-06 08:54",
      "count": 86
    },
    {
      "id": "L12693633",
      "country": "ZA",
      "countryCode": "ZA-FS",
      "latitude": -26.9366747,
      "longitude": 27.2754534,
      "location": "Deelfontein Guest Farm",
      "date": "2021-10-29 19:02",
      "count": 94
    },
    {
      "id": "L3904709",
      "country": "ZA",
      "countryCode": "ZA-NW",
      "latitude": -26.3422105,
      "longitude": 25.6026399,
      "location": "Deelpan",
      "date": "2013-07-10 19:00",
      "count": 6
    },
    {
      "id": "L26497416",
      "country": "ZA",
      "countryCode": "ZA-MP",
      "latitude": -26.2711812,
      "longitude": 28.6978214,
      "location": "Delmas roadside routes",
      "date": "2023-08-09 13:00",
      "count": 64
    },
    {
      "id": "L2755552",
      "country": "ZA",
      "countryCode": "ZA-GT",
      "latitude": -26.1284137,
      "longitude": 28.0057812,
      "location": "Delta Park",
      "date": "2023-10-21 08:46",
      "count": 155
    },
    {
      "id": "L8612916",
      "country": "ZA",
      "countryCode": "ZA-EC",
      "latitude": -33.7899192,
      "longitude": 25.4757998,
      "location": "Despatch River (Despatch)",
      "date": "2023-10-31 12:21",
      "count": 119
    },
    {
      "id": "L18936815",
      "country": "ZA",
      "countryCode": "ZA-GT",
      "latitude": -25.5898267,
      "longitude": 28.5991287,
      "location": "Detweedespruit Conservancy",
      "date": "2023-03-28 09:01",
      "count": 102
    },
    {
      "id": "L11701170",
      "country": "ZA",
      "countryCode": "ZA-MP",
      "latitude": -25.561734,
      "longitude": 28.6837276,
      "location": "Detweedespruit--Eastern side",
      "date": "2023-10-22 15:56",
      "count": 146
    },
    {
      "id": "L8954025",
      "country": "ZA",
      "countryCode": "ZA-GT",
      "latitude": -26.3592862,
      "longitude": 28.7926324,
      "location": "Devon Birding Routes",
      "date": "2023-09-30 07:56",
      "count": 181
    },
    {
      "id": "L4027019",
      "country": "ZA",
      "countryCode": "ZA-GT",
      "latitude": -26.4903659,
      "longitude": 28.6740589,
      "location": "Devon Grasslands IBA (Gauteng Province)",
      "date": "2023-10-27 06:51",
      "count": 210
    },
    {
      "id": "L3633826",
      "country": "ZA",
      "countryCode": "ZA-MP",
      "latitude": -26.46,
      "longitude": 28.812,
      "location": "Devon Grasslands IBA (Mpumalanga Province)",
      "date": "2023-08-30 06:38",
      "count": 235
    },
    {
      "id": "L3132360",
      "country": "ZA",
      "countryCode": "ZA-WC",
      "latitude": -34.0984226,
      "longitude": 18.8261676,
      "location": "Dick Dent Bird Sanctuary",
      "date": "2023-10-14 07:12",
      "count": 132
    },
    {
      "id": "L6369742",
      "country": "ZA",
      "countryCode": "ZA-NC",
      "latitude": -32.5435573,
      "longitude": 19.543004,
      "location": "Die Mond Campsite",
      "date": "2019-04-21 07:00",
      "count": 82
    },
    {
      "id": "L3667907",
      "country": "ZA",
      "countryCode": "ZA-WC",
      "latitude": -34.0483238,
      "longitude": 18.4477401,
      "location": "Die Oog Bird Sanctuary",
      "date": "2023-09-25 16:45",
      "count": 79
    },
    {
      "id": "L1547062",
      "country": "ZA",
      "countryCode": "ZA-WC",
      "latitude": -33.6599996,
      "longitude": 19.0067058,
      "location": "Diemersfontein",
      "date": "2022-02-02 17:06",
      "count": 69
    },
    {
      "id": "L1649427",
      "country": "ZA",
      "countryCode": "ZA-GT",
      "latitude": -25.9339517,
      "longitude": 27.9572533,
      "location": "Diepsloot Nature Reserve",
      "date": "2023-11-09 06:04",
      "count": 243
    },
    {
      "id": "L12903646",
      "country": "ZA",
      "countryCode": "ZA-LP",
      "latitude": -23.7093137,
      "longitude": 29.7543143,
      "location": "Dikgale Area",
      "date": "2022-06-21 08:22",
      "count": 93
    },
    {
      "id": "L2500433",
      "country": "ZA",
      "countryCode": "ZA-NW",
      "latitude": -25.4121131,
      "longitude": 27.7425385,
      "location": "Dikhololo Game Reserve",
      "date": "2023-09-02 16:38",
      "count": 224
    },
    {
      "id": "L22738424",
      "country": "ZA",
      "countryCode": "ZA-GT",
      "latitude": -25.376226,
      "longitude": 28.423192,
      "location": "Dinokeng GR--Eastern Section",
      "date": "2023-08-11 14:47",
      "count": 160
    },